[
  {
    "name": "Funerare „In Memoriam Oradea”",
    "address": "Strada Louis Pasteur 69, Oradea 410154",
    "city": "Oradea",
    "county": "Bihor",
    "phone": "0722 382 145",
    "website": "https://inmemoriamoradea.ro",
    "rating": 4.7,
    "review_count": 47,
    "business_hours": null,
    "is_non_stop": true,
    "services": []
  },
  {
    "name": "Servicii Funerare Luigi Oradea 24/24 - Pompe funebre - Repatriere decedati RO",
    "address": "Strada Louis Pasteur 121, Oradea 410154",
    "city": "Oradea",
    "county": "Bihor",
    "phone": "0753 661 704",
    "website": "https://funerareluigi.ro",
    "rating": 5.0,
    "review_count": 50,
    "business_hours": null,
    "is_non_stop": true,
    "services": []
  },
  {
    "name": "Repatrieri decedati Europa : Germania, Ungaria, Austria, Olanda, Belgia, Spania, Anglia, Irlanda, Scotia, Portugalia, Norvegia, Suedia | Servicii Funerare Oradea Non Stop",
    "address": "Strada Louis Pasteur 121, Oradea 410154",
    "city": "Oradea",
    "county": "Bihor",
    "phone": "0724 809 208",
    "website": "https://repatrierieuropa.ro",
    "rating": 5.0,
    "review_count": 50,
    "business_hours": null,
    "is_non_stop": true,
    "services": []
  },
  {
    "name": "LA CAPELA",
    "address": "Strada, Calea Alexandru Cazaban Nr 13, Oradea 410272",
    "city": "Oradea",
    "county": "Bihor",
    "phone": "0744 400 258",
    "website": "https://lacapela.ro",
    "rating": 5.0,
    "review_count": 50,
    "business_hours": null,
    "is_non_stop": true,
    "services": []
  },
  {
    "name": "Servicii Funerare Oradea - Pompe Funebre Oradea - Transport Funerar Oradea - Agentia In Memoriam",
    "address": "Strada Louis Pasteur 69, Oradea 410154",
    "city": "Oradea",
    "county": "Bihor",
    "phone": "0722 382 145",
    "website": "https://funebris.ro",
    "rating": 5.0,
    "review_count": 50,
    "business_hours": null,
    "is_non_stop": true,
    "services": []
  },
  {
    "name": "Pompe Funebre Oradea",
    "address": "Strada Primăriei, Oradea",
    "city": "Oradea",
    "county": "Bihor",
    "phone": "0729 672 396",
    "website": "https://pompefunebreoradea.ro",
    "rating": 5.0,
    "review_count": 50,
    "business_hours": null,
    "is_non_stop": true,
    "services": []
  },
  {
    "name": "La Capela Oradea",
    "address": null,
    "city": "Oradea",
    "county": "Bihor",
    "phone": "0741 547 272",
    "website": "https://serviciifunerareoradea.ro",
    "rating": 5.0,
    "review_count": 50,
    "business_hours": null,
    "is_non_stop": true,
    "services": []
  },
  {
    "name": "Servicii Funerare Luigi",
    "address": "Strada Aurel Covaci 34, Oradea 410128",
    "city": "Oradea",
    "county": "Bihor",
    "phone": "0753 661 704",
    "website": "https://funerareluigi.ro",
    "rating": null,
    "review_count": null,
    "business_hours": null,
    "is_non_stop": true,
    "services": []
  },
  {
    "name": "Coroare Funerare si Florărie Retro Dana",
    "address": "Strada Războieni 57, Oradea 410571",
    "city": "Oradea",
    "county": "Bihor",
    "phone": "0771 556 653",
    "website": null,
    "rating": 5.0,
    "review_count": 50,
    "business_hours": null,
    "is_non_stop": true,
    "services": []
  },
  {
    "name": "Pompe Funebre",
    "address": "Str. Tudor Vladimirescu 17, Oradea",
    "city": "Oradea",
    "county": "Bihor",
    "phone": "0729 672 396",
    "website": null,
    "rating": null,
    "review_count": null,
    "business_hours": null,
    "is_non_stop": true,
    "services": []
  },
  {
    "name": "I.I. LUCACI CRĂCIUN",
    "address": "Str. Slatinei 5, Oradea",
    "city": "Oradea",
    "county": "Bihor",
    "phone": "0743 069 118",
    "website": null,
    "rating": 5.0,
    "review_count": 50,
    "business_hours": null,
    "is_non_stop": true,
    "services": []
  },
  {
    "name": "Pompe Funebre Lumina De Veghe",
    "address": "Strada Grigore Erofte 4, Oradea 410265",
    "city": "Oradea",
    "county": "Bihor",
    "phone": "0770 237 777",
    "website": null,
    "rating": 3.0,
    "review_count": 30,
    "business_hours": null,
    "is_non_stop": true,
    "services": []
  },
  {
    "name": "La Capătul Drumului",
    "address": null,
    "city": "Oradea",
    "county": "Bihor",
    "phone": "0722 155 655",
    "website": null,
    "rating": null,
    "review_count": null,
    "business_hours": null,
    "is_non_stop": true,
    "services": []
  }
]