[
  {
    "name": "Premium Servicii Funerare - Non Stop (Dolj / Craiova)",
    "address": "Strada Nanterre 90, Craiova 200499",
    "city": "Craiova",
    "county": "Dolj",
    "phone": "0784 960 000",
    "website": "https://premiumfunerare.ro",
    "rating": 4.9,
    "review_count": 49,
    "business_hours": null,
    "is_non_stop": true,
    "category": "Servicii funerare",
    "latitude": 44.3231545,
    "longitude": 23.7654656,
    "place_id": "@44.3231545,23.7654656,13z",
    "email": null,
    "fiscal_code": null,
    "description": "Firma servicii funerare NON STOP in Craiova si judetul Dolj, Oltenia la Premium Funerare - servicii funerare complete de calitate, personal calificat, masini mortuare de ultima generatie",
    "services": [
      "Transport Funerar",
      "Sicriu",
      "Sicrie",
      "Inmormantare"
    ]
  },
  {
    "name": "ETERNA Servicii Funerare Craiova. Pompe Funebre Craiova",
    "address": "Calea București 105, Craiova 200477",
    "city": "Craiova",
    "county": "Dolj",
    "phone": "0770 682 734",
    "website": "https://eterna-funerare.ro",
    "rating": 5.0,
    "review_count": 50,
    "business_hours": null,
    "is_non_stop": true,
    "category": "Servicii funerare",
    "latitude": 44.3231545,
    "longitude": 23.7654656,
    "place_id": "@44.3231545,23.7654656,13z",
    "email": "contact@eterna-funerare.ro",
    "fiscal_code": null,
    "description": "Ne puteti contacta oricand apare o urgenta, indiferent de ora. Preluarea apelurilor se efectueaza in regim de program NON-STOP. Telefon: 0770 682 734",
    "services": [
      "Transport Funerar",
      "Imbalsamare",
      "Sicrie",
      "Înmormântare",
      "Repatriere"
    ]
  },
  {
    "name": "Servicii Funerare Craiova - ALIN",
    "address": "VIS-A-VIS DE STATIA 30, CRAIOVITA NOUA 30, Craiova 200142",
    "city": "CRAIOVITA NOUA 30",
    "county": "Dolj",
    "phone": "0728 406 401",
    "website": "https://alin-funerare.ro",
    "rating": 5.0,
    "review_count": 50,
    "business_hours": null,
    "is_non_stop": true,
    "category": "Servicii funerare",
    "latitude": 44.3231545,
    "longitude": 23.7654656,
    "place_id": "@44.3231545,23.7654656,13z",
    "email": "contact@alin-funerare.ro",
    "fiscal_code": null,
    "description": "Alin Funerare Craiova - Firmă de servicii funerare din Craiova, disponibilă non-stop. Organizare completă de înmormântare, transport funerar, aranjamente florale, consiliere și sprijin cu omenie și respect.",
    "services": [
      "Transport Funerar",
      "Sicrie",
      "Coroane",
      "Aranjamente Florale",
      "Înmormântare",
      "Documente"
    ]
  },
  {
    "name": "Servicii funerare Marius",
    "address": "Strada Tabaci 46, Craiova 200589",
    "city": "Craiova",
    "county": "Dolj",
    "phone": "0765 122 853",
    "website": "https://apxr8l.webwave.dev",
    "rating": 4.9,
    "review_count": 49,
    "business_hours": null,
    "is_non_stop": true,
    "category": "Servicii funerare",
    "latitude": 44.3231545,
    "longitude": 23.7654656,
    "place_id": "@44.3231545,23.7654656,13z",
    "email": null,
    "fiscal_code": null,
    "description": null,
    "services": []
  },
  {
    "name": "Servicii Funerare Craiova, Pompe Funebre Craiova. Funerare Non Stop Craiova - Eternity",
    "address": "Calea București 103, Craiova 200785",
    "city": "Craiova",
    "county": "Dolj",
    "phone": "0788 181 847",
    "website": "https://eternity-craiova.ro",
    "rating": 4.7,
    "review_count": 47,
    "business_hours": null,
    "is_non_stop": true,
    "category": "Pompe funebre",
    "latitude": 44.3231545,
    "longitude": 23.7654656,
    "place_id": "@44.3231545,23.7654656,13z",
    "email": "office@eternityfunerare.ro",
    "fiscal_code": null,
    "description": "Servicii funerare complete in Craiova oferite de Eternity. Noi suntem acolo cand tu ai nevoie. Ne poti contacta non stop. Afla mai multe!",
    "services": [
      "Transport Funerar",
      "Sicriu",
      "Sicrie",
      "Inmormantare",
      "Capela",
      "Servicii Complete"
    ]
  },
  {
    "name": "Robimel Servicii Funerare",
    "address": "Complex Groapa, Bulevardul Nicolae Titulescu 35A, Craiova 200142",
    "city": "Bulevardul Nicolae Titulescu 35A",
    "county": "Dolj",
    "phone": "0799 033 900",
    "website": "https://robimelfunerare.ro",
    "rating": 5.0,
    "review_count": 50,
    "business_hours": null,
    "is_non_stop": true,
    "category": "Servicii funerare",
    "latitude": 44.3231545,
    "longitude": 23.7654656,
    "place_id": "@44.3231545,23.7654656,13z",
    "email": "robimelfunerare@gmail.com",
    "fiscal_code": null,
    "description": "Robimel Servicii Funerare - punem suflet in fiecare detaliu, pentru a oferi un ramas-bun cu liniste, demnitate si respect. \n- Consiliere si asistenta non-stop\n- Servicii autorizate de igienizare si cosmetizare\n- Sicrie complet echipate si accesorii funerare\n- Organizare ceremonii funerare\n- Transport funerar cu masini autorizate\n- Organizare parastase si pomeni\nFiecare om merita sa fie condus pe ultimul drum cu empatie, pace si rugaciune. Va asiguram de profesionalismul si seriozitatea echipei noastre.\nLocatie: Craiova, Bld. Nic. Titulescu nr. 35A, Complex Groapa",
    "services": [
      "Transport Funerar",
      "Sicrie",
      "Aranjamente Florale",
      "Documente"
    ]
  },
  {
    "name": "Pompe Funebre Phoenix Funerar",
    "address": "Strada Simion Bărnuțiu 40, Craiova 200382",
    "city": "Craiova",
    "county": "Dolj",
    "phone": "0764 632 341",
    "website": "https://facebook.com",
    "rating": 4.8,
    "review_count": 48,
    "business_hours": null,
    "is_non_stop": true,
    "category": "Servicii funerare",
    "latitude": 44.3231545,
    "longitude": 23.7654656,
    "place_id": "@44.3231545,23.7654656,13z",
    "email": null,
    "fiscal_code": null,
    "description": "Conectează-te la Facebook şi începe să postezi şi să iei legătura cu prietenii, cu familia şi cu cei pe care-i cunoşti.",
    "services": []
  },
  {
    "name": "Servicii funerare Craiova Memora Craiovita",
    "address": "Bloc 22, Bulevardul Oltenia 24, Craiova 200596",
    "city": "Bulevardul Oltenia 24",
    "county": "Dolj",
    "phone": "0770 898 688",
    "website": "https://servicii-funerare-craiova.ro",
    "rating": 5.0,
    "review_count": 50,
    "business_hours": null,
    "is_non_stop": true,
    "category": "Servicii funerare",
    "latitude": 44.3231545,
    "longitude": 23.7654656,
    "place_id": "@44.3231545,23.7654656,13z",
    "email": "contact@servicii-funerare-craiova.ro",
    "fiscal_code": null,
    "description": "Servicii funerare Non Stop Craiova Memora se diferentiază de multe firme de pompe funebre prin intermediul serviciilor funerare complete",
    "services": [
      "Transport Funerar",
      "Îmbălsămare",
      "Sicriu",
      "Sicrie",
      "Înmormântare",
      "Înhumare",
      "Capelă",
      "Capela",
      "Servicii Complete",
      "Documente",
      "Repatriere"
    ]
  },
  {
    "name": "Imperial Funerare Craiova",
    "address": "DN56 86, Craiova",
    "city": "Craiova",
    "county": "Dolj",
    "phone": "0724 461 600",
    "website": null,
    "rating": 4.2,
    "review_count": 42,
    "business_hours": null,
    "is_non_stop": true,
    "category": "Servicii funerare",
    "latitude": 44.3231545,
    "longitude": 23.7654656,
    "place_id": "@44.3231545,23.7654656,13z",
    "email": null,
    "fiscal_code": null,
    "description": null,
    "services": []
  },
  {
    "name": "ROYAl Funerare Craiova",
    "address": "Strada George Enescu 82, Craiova 200709",
    "city": "Craiova",
    "county": "Dolj",
    "phone": "0761 410 604",
    "website": "https://royal-funerare-craiova.ro",
    "rating": null,
    "review_count": null,
    "business_hours": null,
    "is_non_stop": true,
    "category": "Servicii funerare",
    "latitude": 44.3231545,
    "longitude": 23.7654656,
    "place_id": "@44.3231545,23.7654656,13z",
    "email": "contact@royal-funerare-craiova.ro",
    "fiscal_code": null,
    "description": null,
    "services": [
      "Transport Funerar",
      "Îmbălsămare",
      "Sicriu",
      "Sicrie",
      "Aranjamente Florale",
      "Cruce",
      "Înmormântare",
      "Înhumare",
      "Capelă",
      "Repatriere"
    ]
  },
  {
    "name": "Servicii Funerare Renato",
    "address": "Strada Caracal 52, Craiova 200542",
    "city": "Craiova",
    "county": "Dolj",
    "phone": "0756 499 960",
    "website": "https://funerare-non-stop.ro",
    "rating": 5.0,
    "review_count": 50,
    "business_hours": null,
    "is_non_stop": true,
    "category": "Servicii funerare",
    "latitude": 44.3231545,
    "longitude": 23.7654656,
    "place_id": "@44.3231545,23.7654656,13z",
    "email": "contact@funerare-non-stop.ro",
    "fiscal_code": null,
    "description": null,
    "services": [
      "Transport Funerar",
      "Îmbălsămare",
      "Imbalsamare",
      "Sicriu",
      "Sicrie",
      "Cruci",
      "Servicii Complete"
    ]
  },
  {
    "name": "Funeralia - Servicii funerare complete",
    "address": "Calea București nr.105, Craiova 200477",
    "city": "Craiova",
    "county": "Dolj",
    "phone": "0761 414 719",
    "website": null,
    "rating": 4.6,
    "review_count": 46,
    "business_hours": null,
    "is_non_stop": true,
    "category": "Servicii funerare",
    "latitude": 44.3231545,
    "longitude": 23.7654656,
    "place_id": "@44.3231545,23.7654656,13z",
    "email": null,
    "fiscal_code": null,
    "description": null,
    "services": []
  },
  {
    "name": "Servicii Funerare Etternidad",
    "address": "Strada Amaradia 47, Craiova 200157",
    "city": "Craiova",
    "county": "Dolj",
    "phone": "0762 628 442",
    "website": null,
    "rating": 5.0,
    "review_count": 50,
    "business_hours": null,
    "is_non_stop": true,
    "category": "Servicii funerare",
    "latitude": 44.3231545,
    "longitude": 23.7654656,
    "place_id": "@44.3231545,23.7654656,13z",
    "email": null,
    "fiscal_code": null,
    "description": null,
    "services": []
  },
  {
    "name": "Alin funerare",
    "address": "Strada Henri Coandă 24, Craiova 200008",
    "city": "Craiova",
    "county": "Dolj",
    "phone": "0766 377 188",
    "website": null,
    "rating": 5.0,
    "review_count": 50,
    "business_hours": null,
    "is_non_stop": true,
    "category": "Servicii funerare",
    "latitude": 44.3231545,
    "longitude": 23.7654656,
    "place_id": "@44.3231545,23.7654656,13z",
    "email": null,
    "fiscal_code": null,
    "description": null,
    "services": []
  },
  {
    "name": "Servicii funerare Luci",
    "address": "Aleea 5 Brestei, Craiova",
    "city": "Craiova",
    "county": "Dolj",
    "phone": "0757 984 198",
    "website": null,
    "rating": 5.0,
    "review_count": 50,
    "business_hours": null,
    "is_non_stop": true,
    "category": "Servicii funerare",
    "latitude": 44.3324463,
    "longitude": 23.6786162,
    "place_id": "@44.3324463,23.6786162,13z",
    "email": null,
    "fiscal_code": null,
    "description": null,
    "services": []
  },
  {
    "name": "Funerare President",
    "address": "Bulevardul Oltenia 113, Craiova",
    "city": "Craiova",
    "county": "Dolj",
    "phone": "0784 005 555",
    "website": "https://presidentfunerare.ro",
    "rating": 4.8,
    "review_count": 48,
    "business_hours": null,
    "is_non_stop": true,
    "category": "Servicii funerare",
    "latitude": 44.3324463,
    "longitude": 23.6786162,
    "place_id": "@44.3324463,23.6786162,13z",
    "email": "contact@presidentfunerare.ro",
    "fiscal_code": null,
    "description": "President funerare Dolj - Firma de servicii funerare si pompe funebre din Craiova, este alaturi de dumneavoastra in momente grele, cu servicii funerare complete.",
    "services": [
      "Transport Funerar",
      "Imbalsamare",
      "Sicrie",
      "Servicii Complete",
      "Documente"
    ]
  },
  {
    "name": "Servicii Funerare Natalya - NON STOP - Craiova, Dolj",
    "address": "Strada Toamnei 2, Craiova 200122",
    "city": "Craiova",
    "county": "Dolj",
    "phone": "0761 344 389",
    "website": "https://funerarenatalya.ro",
    "rating": 4.9,
    "review_count": 49,
    "business_hours": null,
    "is_non_stop": true,
    "category": "Pompe funebre",
    "latitude": 44.3324463,
    "longitude": 23.6786162,
    "place_id": "@44.3324463,23.6786162,13z",
    "email": "contact@funerarenatalya.ro",
    "fiscal_code": null,
    "description": "Oferim servicii funerare complete în Craiova: transport, îngrijire, sicrie, repatriere și incinerare. Suntem alături de dumneavoastră 24/7 cu respect și discreție",
    "services": [
      "Transport Funerar",
      "Sicriu",
      "Sicrie",
      "Incinerare",
      "Servicii Complete",
      "Repatriere"
    ]
  },
  {
    "name": "Memorial - Servicii Funerare",
    "address": "Strada Tabaci 36A, Craiova 200642",
    "city": "Craiova",
    "county": "Dolj",
    "phone": "0762 146 532",
    "website": "https://pompefunebrecraiova.ro",
    "rating": 5.0,
    "review_count": 50,
    "business_hours": null,
    "is_non_stop": true,
    "category": "Pompe funebre",
    "latitude": 44.3324463,
    "longitude": 23.6786162,
    "place_id": "@44.3324463,23.6786162,13z",
    "email": "sorache_pop@yahoo.com",
    "fiscal_code": null,
    "description": "Memorial - Pompe Funebre CraiovaServicii Funerare Complete oferite cu respect și compasiune, pentru a vă sprijini în cele mai dificile momente.",
    "services": [
      "Transport Funerar",
      "Îmbălsămare",
      "Imbalsamare",
      "Sicrie",
      "Înmormântare",
      "Inmormantare",
      "Formalități",
      "Repatriere"
    ]
  },
  {
    "name": "Servicii Funerare Gabriel",
    "address": "Strada Brestei 223, Craiova",
    "city": "Craiova",
    "county": "Dolj",
    "phone": "0764 532 546",
    "website": null,
    "rating": 5.0,
    "review_count": 50,
    "business_hours": null,
    "is_non_stop": true,
    "category": "Pompe funebre",
    "latitude": 44.3324463,
    "longitude": 23.6786162,
    "place_id": "@44.3324463,23.6786162,13z",
    "email": null,
    "fiscal_code": null,
    "description": null,
    "services": []
  },
  {
    "name": "SERVICII FUNERARE CRAIOVA - LEHRER COM",
    "address": "Bloc I6, Bulevardul Nicolae Titulescu 15-38, Craiova 200143",
    "city": "Bulevardul Nicolae Titulescu 15-38",
    "county": "Dolj",
    "phone": "0723 519 087",
    "website": "https://agentiefunerara.com",
    "rating": 1.0,
    "review_count": 10,
    "business_hours": null,
    "is_non_stop": true,
    "category": "Servicii funerare",
    "latitude": 44.3324463,
    "longitude": 23.6786162,
    "place_id": "@44.3324463,23.6786162,13z",
    "email": "office@agentiefunerara.com",
    "fiscal_code": null,
    "description": "Agentie Funerara | Servicii Funerare | Pompe Funebre",
    "services": [
      "Transport Funerar",
      "Sicriu",
      "Sicrie",
      "Coroane",
      "Flori",
      "Cruci",
      "Monument",
      "Monumente",
      "Capela",
      "Documente",
      "Repatriere"
    ]
  },
  {
    "name": "Servicii Funerare Craiova",
    "address": "Calea București 101, Craiova 207450",
    "city": "Craiova",
    "county": "Dolj",
    "phone": "0770 682 734",
    "website": "https://eterna-funerare.ro",
    "rating": null,
    "review_count": null,
    "business_hours": null,
    "is_non_stop": true,
    "category": "Pompe funebre",
    "latitude": 44.3132605,
    "longitude": 23.820185,
    "place_id": "@44.3132605,23.820185,13z",
    "email": "contact@eterna-funerare.ro",
    "fiscal_code": null,
    "description": "Ne puteti contacta oricand apare o urgenta, indiferent de ora. Preluarea apelurilor se efectueaza in regim de program NON-STOP. Telefon: 0770 682 734",
    "services": [
      "Transport Funerar",
      "Imbalsamare",
      "Sicrie",
      "Înmormântare",
      "Repatriere"
    ]
  },
  {
    "name": "Angel's Funerare",
    "address": "Calea București 101, Craiova 200470",
    "city": "Craiova",
    "county": "Dolj",
    "phone": "0753 495 259",
    "website": "https://serviciifunerareangels.ro",
    "rating": 5.0,
    "review_count": 50,
    "business_hours": null,
    "is_non_stop": true,
    "category": "Pompe funebre",
    "latitude": 44.3132605,
    "longitude": 23.820185,
    "place_id": "@44.3132605,23.820185,13z",
    "email": null,
    "fiscal_code": null,
    "description": null,
    "services": []
  },
  {
    "name": "Santini",
    "address": "Bloc A13, Calea București 85, Craiova 200474",
    "city": "Calea București 85",
    "county": "Dolj",
    "phone": "0766 209 080",
    "website": "https://serviciifunerarecraiova.ro",
    "rating": 4.4,
    "review_count": 44,
    "business_hours": null,
    "is_non_stop": true,
    "category": "Servicii funerare",
    "latitude": 44.31799,
    "longitude": 23.7360181,
    "place_id": "@44.31799,23.7360181,13z",
    "email": "santinicraiova@yahoo.ro",
    "fiscal_code": null,
    "description": "Servicii funerare Craiova Santini ofera tot sprijinul pentru a trece prin aceste clipe dificile din viata dumneavoastra.",
    "services": [
      "Transport Funerar",
      "Imbalsamare",
      "Sicriu",
      "Sicrie",
      "Flori",
      "Cruce",
      "Inmormantare",
      "Acte Deces"
    ]
  },
  {
    "name": "Funerare In Memoriam",
    "address": "Bulevardul Dacia 75A, Craiova 200588",
    "city": "Craiova",
    "county": "Dolj",
    "phone": "0733 919 308",
    "website": null,
    "rating": 4.3,
    "review_count": 43,
    "business_hours": {
      "text": "Deschis nonstop"
    },
    "is_non_stop": true,
    "category": "Pompe funebre",
    "latitude": 44.31799,
    "longitude": 23.7360181,
    "place_id": "@44.31799,23.7360181,13z",
    "email": null,
    "fiscal_code": null,
    "description": null,
    "services": []
  },
  {
    "name": "Marieta Funerare",
    "address": "Bulevardul Nicolae Romanescu 5, Craiova",
    "city": "Craiova",
    "county": "Dolj",
    "phone": "0760 141 315",
    "website": "https://funeraremarieta.ro",
    "rating": 5.0,
    "review_count": 50,
    "business_hours": null,
    "is_non_stop": true,
    "category": "Servicii funerare",
    "latitude": 44.31799,
    "longitude": 23.7360181,
    "place_id": "@44.31799,23.7360181,13z",
    "email": null,
    "fiscal_code": null,
    "description": null,
    "services": [
      "Sicriu",
      "Inmormantare",
      "Incinerare",
      "Crematoriu",
      "Pachet Funerar",
      "Documente",
      "Repatriere"
    ]
  },
  {
    "name": "Omagii Servicii Funerare",
    "address": "Bloc E1, Bulevardul Dacia 126, Craiova 200086",
    "city": "Bulevardul Dacia 126",
    "county": "Dolj",
    "phone": "0769 291 057",
    "website": null,
    "rating": null,
    "review_count": null,
    "business_hours": null,
    "is_non_stop": true,
    "category": "Servicii funerare",
    "latitude": 44.31799,
    "longitude": 23.7360181,
    "place_id": "@44.31799,23.7360181,13z",
    "email": null,
    "fiscal_code": null,
    "description": null,
    "services": []
  },
  {
    "name": "Servicii Funerare",
    "address": "Pavilion Central, Strada Târgului 17, Craiova 200632",
    "city": "Strada Târgului 17",
    "county": "Dolj",
    "phone": "0723 017 047",
    "website": null,
    "rating": null,
    "review_count": null,
    "business_hours": null,
    "is_non_stop": true,
    "category": "Servicii funerare",
    "latitude": 44.31799,
    "longitude": 23.7360181,
    "place_id": "@44.31799,23.7360181,13z",
    "email": null,
    "fiscal_code": null,
    "description": null,
    "services": []
  },
  {
    "name": "Antonio",
    "address": "Strada Dezrobirii 60, Craiova 200519",
    "city": "Craiova",
    "county": "Dolj",
    "phone": "0761 711 171",
    "website": null,
    "rating": 5.0,
    "review_count": 50,
    "business_hours": null,
    "is_non_stop": true,
    "category": "Pompe funebre",
    "latitude": 44.31799,
    "longitude": 23.7360181,
    "place_id": "@44.31799,23.7360181,13z",
    "email": null,
    "fiscal_code": null,
    "description": null,
    "services": []
  },
  {
    "name": "FUNERARII CRESTINE SRL",
    "address": "Strada Bucura 99, Craiova 200310",
    "city": "Craiova",
    "county": "Dolj",
    "phone": "0762 716 907",
    "website": "https://funerariicrestine.ro",
    "rating": 5.0,
    "review_count": 50,
    "business_hours": null,
    "is_non_stop": true,
    "category": "Servicii funerare",
    "latitude": 44.31799,
    "longitude": 23.7360181,
    "place_id": "@44.31799,23.7360181,13z",
    "email": "madalin@funerariicrestine.ro",
    "fiscal_code": null,
    "description": "Funerarii Crestine ofera servicii funerare complete si profesionale in Craiova si imprejurimi. Oferim servicii funerare complete, inclusiv inmormantari, ingrijirea trupului, capac frigorific, cruci, pomeni si alte servicii funerare",
    "services": [
      "Flori"
    ]
  },
  {
    "name": "07FUNERARE - Agentia Craiova",
    "address": "Calea București nr 103, Craiova 200470",
    "city": "Craiova",
    "county": "Dolj",
    "phone": "021 9766",
    "website": "https://07funerare.ro",
    "rating": 5.0,
    "review_count": 50,
    "business_hours": null,
    "is_non_stop": true,
    "category": "Servicii funerare",
    "latitude": 44.31799,
    "longitude": 23.7360181,
    "place_id": "@44.31799,23.7360181,13z",
    "email": "office@07funerare.ro",
    "fiscal_code": null,
    "description": "Iti oferim Asistenta Funerara, Pompe Funebre si Servicii Funerare Complete in Toata Romania. Program Nonstop. Suntem primul Call-Center Funerar din Tara !",
    "services": [
      "Inmormantare",
      "Incinerare",
      "Documente",
      "Repatriere"
    ]
  },
  {
    "name": "Veșnicia Servicii Funerare",
    "address": "Strada George Enescu 79, Craiova 200145",
    "city": "Craiova",
    "county": "Dolj",
    "phone": "0766 131 012",
    "website": "https://vesniciafunerare.ro",
    "rating": null,
    "review_count": null,
    "business_hours": null,
    "is_non_stop": true,
    "category": "Servicii funerare",
    "latitude": 44.31799,
    "longitude": 23.7360181,
    "place_id": "@44.31799,23.7360181,13z",
    "email": null,
    "fiscal_code": null,
    "description": null,
    "services": [
      "Sicrie",
      "Coroane",
      "Înmormântare"
    ]
  },
  {
    "name": "Eterna Servicii Funerare Bailesti",
    "address": "Str victoria, Băilești 205100",
    "city": "Băilești",
    "county": "Dolj",
    "phone": "0770 682 734",
    "website": "https://eterna-funerare.ro",
    "rating": null,
    "review_count": null,
    "business_hours": null,
    "is_non_stop": true,
    "category": "Servicii funerare",
    "latitude": 44.025418,
    "longitude": 23.3427485,
    "place_id": "@44.025418,23.3427485,16z",
    "email": "contact@eterna-funerare.ro",
    "fiscal_code": null,
    "description": "Ne puteti contacta oricand apare o urgenta, indiferent de ora. Preluarea apelurilor se efectueaza in regim de program NON-STOP. Telefon: 0770 682 734",
    "services": [
      "Transport Funerar",
      "Imbalsamare",
      "Sicrie",
      "Înmormântare",
      "Repatriere"
    ]
  },
  {
    "name": "SERVICII FUNERARE AURAS ALIN SRL",
    "address": "Strada Tăbăcari 3, Băilești 205100",
    "city": "Băilești",
    "county": "Dolj",
    "phone": "0760 938 320",
    "website": null,
    "rating": null,
    "review_count": null,
    "business_hours": null,
    "is_non_stop": true,
    "category": "Servicii funerare",
    "latitude": 44.025418,
    "longitude": 23.3427485,
    "place_id": "@44.025418,23.3427485,16z",
    "email": null,
    "fiscal_code": null,
    "description": null,
    "services": []
  },
  {
    "name": "Prodey Funerare Filiasi",
    "address": "Bulevardul Racoțeanu Nr. 148, Filiași 205300",
    "city": "Filiași",
    "county": "Dolj",
    "phone": "0765 083 080",
    "website": null,
    "rating": null,
    "review_count": null,
    "business_hours": null,
    "is_non_stop": true,
    "category": "Servicii funerare",
    "latitude": 44.5521696,
    "longitude": 23.4379574,
    "place_id": "@44.5521696,23.4379574,13z",
    "email": null,
    "fiscal_code": null,
    "description": null,
    "services": []
  },
  {
    "name": "RITUAL",
    "address": "Strada Pieței, Filiași 205300",
    "city": "Filiași",
    "county": "Dolj",
    "phone": "0763 288 288",
    "website": "https://agentiefunerara.com",
    "rating": 5.0,
    "review_count": 50,
    "business_hours": null,
    "is_non_stop": true,
    "category": "Director de pompe funebre",
    "latitude": 44.5521696,
    "longitude": 23.4379574,
    "place_id": "@44.5521696,23.4379574,13z",
    "email": "office@agentiefunerara.com",
    "fiscal_code": null,
    "description": "Agentie Funerara | Servicii Funerare | Pompe Funebre",
    "services": [
      "Transport Funerar",
      "Sicriu",
      "Sicrie",
      "Coroane",
      "Flori",
      "Cruci",
      "Monument",
      "Monumente",
      "Capela",
      "Documente",
      "Repatriere"
    ]
  },
  {
    "name": "Servicii Funerare Filiasi",
    "address": "Strada Corneliu Coposu 36, Filiași 205300",
    "city": "Filiași",
    "county": "Dolj",
    "phone": "0763 288 288",
    "website": "https://agentiefunerara.com",
    "rating": null,
    "review_count": null,
    "business_hours": null,
    "is_non_stop": true,
    "category": "Director de pompe funebre",
    "latitude": 44.5521696,
    "longitude": 23.4379574,
    "place_id": "@44.5521696,23.4379574,13z",
    "email": "office@agentiefunerara.com",
    "fiscal_code": null,
    "description": "Agentie Funerara | Servicii Funerare | Pompe Funebre",
    "services": [
      "Transport Funerar",
      "Sicriu",
      "Sicrie",
      "Coroane",
      "Flori",
      "Cruci",
      "Monument",
      "Monumente",
      "Capela",
      "Documente",
      "Repatriere"
    ]
  },
  {
    "name": "Segarcea",
    "address": "Strada Unirii, Segarcea",
    "city": "Segarcea",
    "county": "Dolj",
    "phone": "0724 461 600",
    "website": null,
    "rating": 4.7,
    "review_count": 47,
    "business_hours": null,
    "is_non_stop": true,
    "category": "Servicii funerare",
    "latitude": 44.0943407,
    "longitude": 23.7426307,
    "place_id": "@44.0943407,23.7426307,17z",
    "email": null,
    "fiscal_code": null,
    "description": null,
    "services": []
  },
  {
    "name": "WSG FUNERARE",
    "address": "Strada Unirii 101, Segarcea 205400",
    "city": "Segarcea",
    "county": "Dolj",
    "phone": "0765 556 955",
    "website": "https://wsgfunerare.ro",
    "rating": 5.0,
    "review_count": 50,
    "business_hours": null,
    "is_non_stop": true,
    "category": "Servicii funerare",
    "latitude": 44.0943407,
    "longitude": 23.7426307,
    "place_id": "@44.0943407,23.7426307,17z",
    "email": null,
    "fiscal_code": null,
    "description": null,
    "services": []
  },
  {
    "name": "POPA FUNERARE",
    "address": "Str. Frasinului 13, Segarcea 205400",
    "city": "Segarcea",
    "county": "Dolj",
    "phone": "0761 174 020",
    "website": "https://paginiaurii.ro",
    "rating": null,
    "review_count": null,
    "business_hours": null,
    "is_non_stop": true,
    "category": "Servicii funerare",
    "latitude": 44.0943407,
    "longitude": 23.7426307,
    "place_id": "@44.0943407,23.7426307,17z",
    "email": null,
    "fiscal_code": null,
    "description": null,
    "services": []
  }
]