[
  {
    "name": "Anima Funerare Complete",
    "address": "Strada Teascului 29, Bucure»ôti 042098",
    "city": "Bucure»ôti",
    "county": "Bucure»ôti",
    "phone": "0722 274 177",
    "website": "https://funerare-complete.ro",
    "rating": 4.9,
    "review_count": 49,
    "business_hours": null,
    "is_non_stop": true,
    "category": "Servicii funerare",
    "latitude": 44.4268,
    "longitude": 26.1025,
    "place_id": "0x40b1fd398d05d399:0x1d08ff2bcab17eaa",
    "coord_quality": "approximate",
    "email": null,
    "fiscal_code": null,
    "description": null,
    "services": []
  },
  {
    "name": "Rarox Fundeni - Servicii Funerare & Pompe Funebre Sector 2",
    "address": "Str. Corbita 2, Bucure»ôti 052034",
    "city": "Bucure»ôti",
    "county": "Bucure»ôti",
    "phone": "0755 911 783",
    "website": "https://capofunerare.ro",
    "rating": 5.0,
    "review_count": 50,
    "business_hours": null,
    "is_non_stop": true,
    "category": "Pompe funebre",
    "latitude": 44.4090798,
    "longitude": 25.906659,
    "place_id": "0x40b1ffc2d6377921:0x6e7ecd9e41443354",
    "coord_quality": "approximate",
    "email": null,
    "fiscal_code": null,
    "description": null,
    "services": []
  },
  {
    "name": "Funerare Capo Rahova - Servicii Funerare Complete Non Stop Sector 5. Pompe Funebre Sector 5",
    "address": "Calea Vitan 112, Bucure»ôti 031282",
    "city": "Bucure»ôti",
    "county": "Bucure»ôti",
    "phone": "0754 500 504",
    "website": "https://mariafunerare.ro",
    "rating": 5.0,
    "review_count": 50,
    "business_hours": {
      "text": "Deschis nonstop"
    },
    "is_non_stop": true,
    "category": "Servicii funerare",
    "latitude": 44.4090798,
    "longitude": 25.906659,
    "place_id": "0x40b1ffefb101785d:0x4442f3e7a84fe9dc",
    "coord_quality": "approximate",
    "email": null,
    "fiscal_code": null,
    "description": null,
    "services": []
  },
  {
    "name": "Servicii funerare complete Macu",
    "address": "Strada Comana 1, Bucure»ôti 011145",
    "city": "Bucure»ôti",
    "county": "Bucure»ôti",
    "phone": "0756 317 313",
    "website": "https://funerare-eden.ro",
    "rating": 4.6,
    "review_count": 50,
    "business_hours": {
      "text": "Deschis nonstop"
    },
    "is_non_stop": true,
    "category": "Servicii funerare",
    "latitude": 44.4090798,
    "longitude": 25.906659,
    "place_id": "0x40b1f988d4dba52f:0xc206a8fc6909e0fc",
    "coord_quality": "approximate",
    "email": null,
    "fiscal_code": null,
    "description": null,
    "services": []
  },
  {
    "name": "üïäÔ∏è Funerare Sfanta Maria",
    "address": "Strada Piatra Ro»ôie 8, Bucure»ôti 061474",
    "city": "Bucure»ôti",
    "county": "Bucure»ôti",
    "phone": "0730 887 112",
    "website": "https://servicii-funerare-ghica.ro",
    "rating": 5.0,
    "review_count": 50,
    "business_hours": null,
    "is_non_stop": true,
    "category": "Servicii funerare",
    "latitude": 44.4090798,
    "longitude": 25.906659,
    "place_id": "0x40b1ff4e909346eb:0x1b16a686c1c30c97",
    "coord_quality": "approximate",
    "email": null,
    "fiscal_code": null,
    "description": null,
    "services": []
  },
  {
    "name": "Servicii funerare complete Bucure»ôti - Green Eden",
    "address": "Strada Mihail Sebastian 44, Bucure»ôti 052034",
    "city": "Bucure»ôti",
    "county": "Bucure»ôti",
    "phone": "0759 555 551",
    "website": "https://funerare24.ro",
    "rating": 5.0,
    "review_count": 50,
    "business_hours": null,
    "is_non_stop": true,
    "category": "Servicii funerare",
    "latitude": 44.4090798,
    "longitude": 25.906659,
    "place_id": "0x40b1ff48791aa519:0xa8971f273aa5b591",
    "coord_quality": "approximate",
    "email": null,
    "fiscal_code": null,
    "description": null,
    "services": []
  },
  {
    "name": "Servicii Funerare Ghica",
    "address": "Strada Apusului 77, Bucure»ôti 062279",
    "city": "Bucure»ôti",
    "county": "Bucure»ôti",
    "phone": "0766 402 060",
    "website": "https://baidocserviciifunerare.ro",
    "rating": 5.0,
    "review_count": 49,
    "business_hours": null,
    "is_non_stop": true,
    "category": "Servicii funerare",
    "latitude": 44.4090798,
    "longitude": 25.906659,
    "place_id": "0x40b201f50be2047d:0x7e76102e5babb103",
    "coord_quality": "approximate",
    "email": null,
    "fiscal_code": null,
    "description": null,
    "services": []
  },
  {
    "name": "Funerare 24 - Servicii Funerare Bucuresti",
    "address": "Cartier FUNDENI, »òoseaua Fundeni 264, 022329",
    "city": "Cartier FUNDENI",
    "county": "Bucure»ôti",
    "phone": "0769 658 216",
    "website": "https://funerarenonstop-bucuresti.ro",
    "rating": 5.0,
    "review_count": 50,
    "business_hours": null,
    "is_non_stop": true,
    "category": "Servicii funerare",
    "latitude": 44.4090798,
    "longitude": 25.906659,
    "place_id": "0x40b1f8e56ee5aec7:0x1fdfcca3e973ae1",
    "coord_quality": "approximate",
    "email": null,
    "fiscal_code": null,
    "description": null,
    "services": []
  },
  {
    "name": "Baidoc - Servicii Funerare Complete",
    "address": "bloc 1C, Bulevardul Camil Ressu 64b, Bucure»ôti 031761",
    "city": "Bucure»ôti",
    "county": "Bucure»ôti",
    "phone": "0770 700 777",
    "website": "https://elitfunerare.ro",
    "rating": 4.9,
    "review_count": 50,
    "business_hours": null,
    "is_non_stop": true,
    "category": "Pompe funebre",
    "latitude": 44.4090798,
    "longitude": 25.906659,
    "place_id": "0x40b1ff6225565427:0x6fae5096f5b450b1",
    "coord_quality": "approximate",
    "email": null,
    "fiscal_code": null,
    "description": null,
    "services": []
  },
  {
    "name": "ELIT FUNERARE",
    "address": "Aleea Huedin nr.5, Aleea Huedin 5, Bucure»ôti 077120",
    "city": "Bucure»ôti",
    "county": "Bucure»ôti",
    "phone": "0765 800 500",
    "website": "https://funerarekasara.ro",
    "rating": 5.0,
    "review_count": 49,
    "business_hours": null,
    "is_non_stop": true,
    "category": "Servicii funerare",
    "latitude": 44.4090798,
    "longitude": 25.906659,
    "place_id": "0x40b1fe3a4e81b929:0xcfad113d82600759",
    "coord_quality": "approximate",
    "email": null,
    "fiscal_code": null,
    "description": null,
    "services": []
  },
  {
    "name": "Beligi",
    "address": "Strada DreptƒÉ»õii 2K, Bucure»ôti 060886",
    "city": "Bucure»ôti",
    "county": "Bucure»ôti",
    "phone": "0746 203 202",
    "website": "https://memoris.ro",
    "rating": 4.9,
    "review_count": 49,
    "business_hours": null,
    "is_non_stop": true,
    "category": "Servicii funerare",
    "latitude": 44.4090798,
    "longitude": 25.906659,
    "place_id": "0x40b201b1ce5503b1:0x9910783c1a84d08",
    "coord_quality": "approximate",
    "email": null,
    "fiscal_code": null,
    "description": null,
    "services": []
  },
  {
    "name": "Funerare Kasara",
    "address": "Calea Plevnei 214, Bucure»ôti 060016",
    "city": "Bucure»ôti",
    "county": "Bucure»ôti",
    "phone": "0752 061 369",
    "website": "https://elvidafunerare.ro",
    "rating": 4.9,
    "review_count": 50,
    "business_hours": null,
    "is_non_stop": true,
    "category": "Servicii funerare",
    "latitude": 44.4090798,
    "longitude": 25.906659,
    "place_id": "0x40b201e57b5b0af7:0x3a6d04d1fba4a09d",
    "coord_quality": "approximate",
    "email": null,
    "fiscal_code": null,
    "description": null,
    "services": []
  },
  {
    "name": "Memoris",
    "address": "Strada Piatra Ro»ôie 8, Bucure»ôti 061474",
    "city": "Bucure»ôti",
    "county": "Bucure»ôti",
    "phone": "0755 222 888",
    "website": "https://servicii-funerare-dorobantu.ro",
    "rating": 4.9,
    "review_count": 50,
    "business_hours": null,
    "is_non_stop": true,
    "category": "Servicii funerare",
    "latitude": 44.4090798,
    "longitude": 25.906659,
    "place_id": "0x40b1ff85d854743f:0xe67e8f1a6bc548a9",
    "coord_quality": "approximate",
    "email": null,
    "fiscal_code": null,
    "description": null,
    "services": []
  },
  {
    "name": "Elvida Funerare",
    "address": "»òoseaua »òtefan cel Mare 5, Bucure»ôti 020121",
    "city": "Bucure»ôti",
    "county": "Bucure»ôti",
    "phone": "0756 317 313",
    "website": "https://funerare-eden.ro",
    "rating": 5.0,
    "review_count": 50,
    "business_hours": null,
    "is_non_stop": true,
    "category": "Pompe funebre",
    "latitude": 44.4090798,
    "longitude": 25.906659,
    "place_id": "0x40b1f92fa1d86e03:0xb05e6d62a1029549",
    "coord_quality": "approximate",
    "email": null,
    "fiscal_code": null,
    "description": null,
    "services": []
  },
  {
    "name": "Funerals Services Dorobantu Mihai G",
    "address": "Strada Berzei 94, Bucure»ôti 010254",
    "city": "Bucure»ôti",
    "county": "Bucure»ôti",
    "phone": "0788 120 116",
    "website": "https://funerarearcade.ro",
    "rating": 5.0,
    "review_count": 50,
    "business_hours": null,
    "is_non_stop": true,
    "category": "Servicii funerare",
    "latitude": 44.4090798,
    "longitude": 25.906659,
    "place_id": "0x40b1ff581c82f47f:0xfc4a9d0c7b58622b",
    "coord_quality": "approximate",
    "email": null,
    "fiscal_code": null,
    "description": null,
    "services": []
  },
  {
    "name": "Green Eden",
    "address": "Calea Floreasca 25, Bucure»ôti 014453",
    "city": "Bucure»ôti",
    "county": "Bucure»ôti",
    "phone": "0730 595 388",
    "website": "https://serviciifunerareprofian.ro",
    "rating": 5.0,
    "review_count": 50,
    "business_hours": null,
    "is_non_stop": true,
    "category": "Pompe funebre",
    "latitude": 44.4090798,
    "longitude": 25.906659,
    "place_id": "0x40b1f9c287e4d9bb:0xce70c23f313a223",
    "coord_quality": "approximate",
    "email": null,
    "fiscal_code": null,
    "description": null,
    "services": []
  },
  {
    "name": "Arcade Funerare",
    "address": "Calea VƒÉcƒÉre»ôti 201, Bucure»ôti 040052",
    "city": "Bucure»ôti",
    "county": "Bucure»ôti",
    "phone": "0767 794 972",
    "website": null,
    "rating": 5.0,
    "review_count": 50,
    "business_hours": {
      "text": "Deschis nonstop"
    },
    "is_non_stop": true,
    "category": "Servicii funerare",
    "latitude": 44.4090798,
    "longitude": 25.906659,
    "place_id": "0x40b1ffb1a230b0a3:0xbb5e81d25079264f",
    "coord_quality": "approximate",
    "email": null,
    "fiscal_code": null,
    "description": null,
    "services": []
  },
  {
    "name": "Casa FunerarƒÉ ProFian",
    "address": "»òoseaua Mihai Bravu nr. 396, Bucure»ôti 030327",
    "city": "Bucure»ôti",
    "county": "Bucure»ôti",
    "phone": "0763 300 400",
    "website": "https://funerare-etern.ro",
    "rating": 5.0,
    "review_count": 49,
    "business_hours": null,
    "is_non_stop": true,
    "category": "Pompe funebre",
    "latitude": 44.4090798,
    "longitude": 25.906659,
    "place_id": "0x40b1ff0990bec525:0xf95fc84816f3df60",
    "coord_quality": "approximate",
    "email": null,
    "fiscal_code": null,
    "description": null,
    "services": []
  },
  {
    "name": "Servicii Funerare Integrum",
    "address": "»òoseaua Chitilei 45, Bucure»ôti 012383",
    "city": "Bucure»ôti",
    "county": "Bucure»ôti",
    "phone": "0765 576 051",
    "website": "https://imperium-funerare.ro",
    "rating": 5.0,
    "review_count": 48,
    "business_hours": null,
    "is_non_stop": true,
    "category": "Servicii funerare",
    "latitude": 44.4090798,
    "longitude": 25.906659,
    "place_id": "0x40b2031cb908f181:0xfe16b52e0460508b",
    "coord_quality": "approximate",
    "email": null,
    "fiscal_code": null,
    "description": null,
    "services": []
  },
  {
    "name": "Etern",
    "address": "Aleea Drago»ô Mladinovici 1, Bucure»ôti 041776",
    "city": "Bucure»ôti",
    "county": "Bucure»ôti",
    "phone": "0727 591 810",
    "website": "https://funeraresector4.ro",
    "rating": 4.9,
    "review_count": 50,
    "business_hours": {
      "text": "Deschis nonstop"
    },
    "is_non_stop": true,
    "category": "Servicii funerare",
    "latitude": 44.4090798,
    "longitude": 25.906659,
    "place_id": "0x40b1fe144b043ee3:0xd0797985687c43b5",
    "coord_quality": "approximate",
    "email": null,
    "fiscal_code": null,
    "description": null,
    "services": []
  },
  {
    "name": "Imperium Funerare - Servicii funerare non stop chitila",
    "address": "strada sergent nicolae florescu 1, Bucure»ôti 042085",
    "city": "Bucure»ôti",
    "county": "Bucure»ôti",
    "phone": "0720 040 040",
    "website": "https://funerareadrianblaj.ro",
    "rating": 4.8,
    "review_count": 49,
    "business_hours": null,
    "is_non_stop": true,
    "category": "Pompe funebre",
    "latitude": 44.4090798,
    "longitude": 25.906659,
    "place_id": "0x40b1ffa407733825:0x81b04829c0c5312b",
    "coord_quality": "approximate",
    "email": null,
    "fiscal_code": null,
    "description": null,
    "services": []
  },
  {
    "name": "Casa funerarƒÉ Sf√¢ntul Nectarie",
    "address": "Strada MƒÉrgeanului 19, Bucure»ôti 052034",
    "city": "Bucure»ôti",
    "county": "Bucure»ôti",
    "phone": "0732 068 268",
    "website": "https://capofunerare.ro",
    "rating": 5.0,
    "review_count": 50,
    "business_hours": null,
    "is_non_stop": true,
    "category": "Servicii funerare",
    "latitude": 44.4090798,
    "longitude": 25.906659,
    "place_id": "0x40b1ffd171325833:0xae2e29da2ca87ed9",
    "coord_quality": "approximate",
    "email": null,
    "fiscal_code": null,
    "description": null,
    "services": []
  },
  {
    "name": "Servicii funerare non stop - Stefy",
    "address": "Strada Apusului 49, Bucure»ôti 062282",
    "city": "Bucure»ôti",
    "county": "Bucure»ôti",
    "phone": "0720 822 853",
    "website": "https://funerarealexandru.ro",
    "rating": 5.0,
    "review_count": 49,
    "business_hours": null,
    "is_non_stop": true,
    "category": "Servicii funerare",
    "latitude": 44.4090798,
    "longitude": 25.906659,
    "place_id": "0x40b201a844d38585:0x5139c29a4918698f",
    "coord_quality": "approximate",
    "email": null,
    "fiscal_code": null,
    "description": null,
    "services": []
  },
  {
    "name": "Servicii Funerare Stefan",
    "address": "Calea Rahovei 214, Bucure»ôti 050909",
    "city": "Bucure»ôti",
    "county": "Bucure»ôti",
    "phone": "0720 233 333",
    "website": "https://casafunerara-sf-ioan.ro",
    "rating": 4.8,
    "review_count": 50,
    "business_hours": {
      "text": "Deschis nonstop"
    },
    "is_non_stop": true,
    "category": "Servicii funerare",
    "latitude": 44.4090798,
    "longitude": 25.906659,
    "place_id": "0x40b1ff49902ceaa1:0x64fd51498fedc6c3",
    "coord_quality": "approximate",
    "email": null,
    "fiscal_code": null,
    "description": null,
    "services": []
  },
  {
    "name": "Servicii Funerare Adrian Blaj",
    "address": "»òos. Pantelimon 291, Bucure»ôti 021616",
    "city": "Bucure»ôti",
    "county": "Bucure»ôti",
    "phone": "0768 104 444",
    "website": "https://efunerare.ro",
    "rating": 4.9,
    "review_count": 49,
    "business_hours": {
      "text": "Deschis nonstop"
    },
    "is_non_stop": true,
    "category": "Servicii funerare",
    "latitude": 44.4090798,
    "longitude": 25.906659,
    "place_id": "0x40b1f9a5c7562c69:0xe97d6dc4a3d0e8",
    "coord_quality": "approximate",
    "email": null,
    "fiscal_code": null,
    "description": null,
    "services": []
  },
  {
    "name": "Capo Servicii Funerare Sector 5. Funerare Bucuresti. Pompe Funebre Bucuresti",
    "address": "langa Cimitirul Ghencea Militar, Bulevardul Ghencea 20A, 061344",
    "city": "Bucure»ôti",
    "county": "Bucure»ôti",
    "phone": "0728 003 002",
    "website": "https://pompe-funebre.ro",
    "rating": 5.0,
    "review_count": 45,
    "business_hours": null,
    "is_non_stop": true,
    "category": "Servicii funerare",
    "latitude": 44.4090798,
    "longitude": 25.906659,
    "place_id": "0x40b20029faf89cf9:0x420ed0ca4d1641f7",
    "coord_quality": "approximate",
    "email": null,
    "fiscal_code": null,
    "description": null,
    "services": []
  },
  {
    "name": "Pompe Funebre Funerare Alexandru",
    "address": "Bulevardul Laminorului 23, Bucure»ôti 012955",
    "city": "Bucure»ôti",
    "county": "Bucure»ôti",
    "phone": "0761 903 090",
    "website": "https://pompefunebrebucurestinonstop.ro",
    "rating": 4.9,
    "review_count": 50,
    "business_hours": null,
    "is_non_stop": true,
    "category": "Pompe funebre",
    "latitude": 44.4090798,
    "longitude": 25.906659,
    "place_id": "0x40b203077c0a4bf5:0xaa29db650af063a6",
    "coord_quality": "approximate",
    "email": null,
    "fiscal_code": null,
    "description": null,
    "services": []
  },
  {
    "name": "Casa Funerara Sf. Ioan",
    "address": "Strada Vulturilor 70, Bucure»ôti 030858",
    "city": "Bucure»ôti",
    "county": "Bucure»ôti",
    "phone": "0788 120 116",
    "website": "https://funerarearcade.ro",
    "rating": 5.0,
    "review_count": 50,
    "business_hours": null,
    "is_non_stop": true,
    "category": "Pompe funebre",
    "latitude": 44.4090798,
    "longitude": 25.906659,
    "place_id": "0x40b1ff08bf7a8935:0x682fb6bdf2b16699",
    "coord_quality": "approximate",
    "email": null,
    "fiscal_code": null,
    "description": null,
    "services": []
  },
  {
    "name": "eFunerare",
    "address": "Aleea Pantelimon, Bucure»ôti 022401",
    "city": "Bucure»ôti",
    "county": "Bucure»ôti",
    "phone": "0768 455 138",
    "website": "https://funerarebenefic.ro",
    "rating": 4.9,
    "review_count": 50,
    "business_hours": null,
    "is_non_stop": true,
    "category": "Servicii funerare",
    "latitude": 44.4090798,
    "longitude": 25.906659,
    "place_id": "0x40b1f928c0cf88c3:0xe8784849bdb6efbd",
    "coord_quality": "approximate",
    "email": null,
    "fiscal_code": null,
    "description": null,
    "services": []
  },
  {
    "name": "Servicii Funerare Condolio Sector 6 - Pompe Funebre Bucuresti",
    "address": "Strada Sabarului 140, Clinceni 077025",
    "city": "Bucure»ôti",
    "county": "Bucure»ôti",
    "phone": "0764 964 744",
    "website": "https://facebook.com",
    "rating": 4.5,
    "review_count": 50,
    "business_hours": null,
    "is_non_stop": true,
    "category": "Servicii funerare",
    "latitude": 44.4090798,
    "longitude": 25.906659,
    "place_id": "0x40adff7f108b45c5:0x9e761e791e4b1832",
    "coord_quality": "approximate",
    "email": null,
    "fiscal_code": null,
    "description": null,
    "services": []
  },
  {
    "name": "Servicii Funerare Bucuresti Sector 1.2.3.4.5.6 Non Stop",
    "address": "Bulevardul Bucure»ôtii Noi, Bucure»ôti 012854",
    "city": "Bucure»ôti",
    "county": "Bucure»ôti",
    "phone": "0762 773 580",
    "website": "https://funerarestraulesti.ro",
    "rating": 5.0,
    "review_count": 50,
    "business_hours": null,
    "is_non_stop": true,
    "category": "Pompe funebre",
    "latitude": 44.4090798,
    "longitude": 25.906659,
    "place_id": "0x40b203e8ea2c9339:0x16f99d76627b58bf",
    "coord_quality": "approximate",
    "email": null,
    "fiscal_code": null,
    "description": null,
    "services": []
  },
  {
    "name": "BENEFIC - Servicii Funerare Bucuresti",
    "address": "»òoseaua Colentina 389, Bucure»ôti 021171",
    "city": "Bucure»ôti",
    "county": "Bucure»ôti",
    "phone": "0768 639 219",
    "website": "https://servicii-funerare-nonstop.ro",
    "rating": 5.0,
    "review_count": 48,
    "business_hours": null,
    "is_non_stop": true,
    "category": "Servicii funerare",
    "latitude": 44.4090798,
    "longitude": 25.906659,
    "place_id": "0x40b1f98ba102468f:0x58fca0ffc8268e97",
    "coord_quality": "approximate",
    "email": null,
    "fiscal_code": null,
    "description": null,
    "services": []
  },
  {
    "name": "Servicii funerare Stelu»õa | Clinceni | Domne»ôti | D√¢rvari | Bragadiru | Bucuresti",
    "address": "»òos. Giurgiului 118, Bucure»ôti 077120",
    "city": "Bucure»ôti",
    "county": "Bucure»ôti",
    "phone": "0771 383 242",
    "website": "https://funerare-anamaria.ro",
    "rating": 5.0,
    "review_count": 50,
    "business_hours": null,
    "is_non_stop": true,
    "category": "Servicii funerare",
    "latitude": 44.4090798,
    "longitude": 25.906659,
    "place_id": "0x40b1ff0054e12871:0x979e761e869efa2f",
    "coord_quality": "approximate",
    "email": null,
    "fiscal_code": null,
    "description": null,
    "services": []
  },
  {
    "name": "Casa Funerara Straulesti",
    "address": "Intrarea GilƒÉului 15, Bucure»ôti 041716",
    "city": "Bucure»ôti",
    "county": "Bucure»ôti",
    "phone": "0767 784 525",
    "website": "https://serviciifunerarewinad.ro",
    "rating": 5.0,
    "review_count": 50,
    "business_hours": null,
    "is_non_stop": true,
    "category": "Servicii funerare",
    "latitude": 44.4090798,
    "longitude": 25.906659,
    "place_id": "0x40b1ffe4bd9bf11b:0xbe3157c10b6e579",
    "coord_quality": "approximate",
    "email": null,
    "fiscal_code": null,
    "description": null,
    "services": []
  },
  {
    "name": "Morga Funerare Alexandru",
    "address": "Strada Stelea SpƒÉtarul 11A, Bucure»ôti 030167",
    "city": "Bucure»ôti",
    "county": "Bucure»ôti",
    "phone": "0761 903 090",
    "website": "https://pompefunebrebucurestinonstop.ro",
    "rating": 5.0,
    "review_count": 49,
    "business_hours": null,
    "is_non_stop": true,
    "category": "Servicii funerare",
    "latitude": 44.4090798,
    "longitude": 25.906659,
    "place_id": "0x40b1ff3c26f29ceb:0x38ccbb975134b4fc",
    "coord_quality": "approximate",
    "email": null,
    "fiscal_code": null,
    "description": null,
    "services": []
  },
  {
    "name": "CASA FUNERARA ADYSIM",
    "address": "Bulevardul Gloriei 66, Bucure»ôti 013287",
    "city": "Bucure»ôti",
    "county": "Bucure»ôti",
    "phone": "0764 700 900",
    "website": "https://serviciifunerare-bucuresti.ro",
    "rating": 4.8,
    "review_count": 50,
    "business_hours": null,
    "is_non_stop": true,
    "category": "Servicii funerare",
    "latitude": 44.4090798,
    "longitude": 25.906659,
    "place_id": "0x40b203ce09ac2ccf:0x9dd32f99212f696f",
    "coord_quality": "approximate",
    "email": null,
    "fiscal_code": null,
    "description": null,
    "services": []
  },
  {
    "name": "Servicii funerare sector 4",
    "address": "»òoseaua »òtefan cel Mare 5, Bucure»ôti 020121",
    "city": "Bucure»ôti",
    "county": "Bucure»ôti",
    "phone": "0745 094 441",
    "website": "https://funerarestoica.ro",
    "rating": 5.0,
    "review_count": 50,
    "business_hours": null,
    "is_non_stop": true,
    "category": "Servicii funerare",
    "latitude": 44.4090798,
    "longitude": 25.906659,
    "place_id": "0x40b1f8adcf7aaaab:0x4ec930480926a512",
    "coord_quality": "approximate",
    "email": null,
    "fiscal_code": null,
    "description": null,
    "services": []
  },
  {
    "name": "SERVICII FUNERARE WINAD",
    "address": "Strada Armeni»ô 2, Bucure»ôti 077160",
    "city": "Bucure»ôti",
    "county": "Bucure»ôti",
    "phone": "0754 500 504",
    "website": "https://mariafunerare.ro",
    "rating": 5.0,
    "review_count": 47,
    "business_hours": null,
    "is_non_stop": true,
    "category": "Servicii funerare",
    "latitude": 44.4090798,
    "longitude": 25.906659,
    "place_id": "0x40b1ff3367a92eb3:0x9e5388c6af89f27d",
    "coord_quality": "approximate",
    "email": null,
    "fiscal_code": null,
    "description": null,
    "services": []
  },
  {
    "name": "Pompe Funebre Servicii Funerare Complete Non Stop Bucuresti si Ilfov",
    "address": "Bulevardul Theodor Pallady 2, Bucure»ôti 032261",
    "city": "Bucure»ôti",
    "county": "Bucure»ôti",
    "phone": "0788 882 411",
    "website": "https://funerare-nonstop.ro",
    "rating": 4.9,
    "review_count": 42,
    "business_hours": null,
    "is_non_stop": true,
    "category": "Servicii funerare",
    "latitude": 44.4090798,
    "longitude": 25.906659,
    "place_id": "0x40b1fe98ea855771:0x9fa6358b42d661a9",
    "coord_quality": "approximate",
    "email": null,
    "fiscal_code": null,
    "description": null,
    "services": []
  },
  {
    "name": "Funerare Acvila",
    "address": "Strada Constantin RƒÉdulescu-Motru 22, Bucure»ôti",
    "city": "Bucure»ôti",
    "county": "Bucure»ôti",
    "phone": "0753 072 502",
    "website": "https://agpfunerare.ro",
    "rating": 5.0,
    "review_count": 50,
    "business_hours": null,
    "is_non_stop": true,
    "category": "Servicii funerare",
    "latitude": 44.4090798,
    "longitude": 25.906659,
    "place_id": "0x40b1ff51c76028a3:0x68538d3ccb676ce4",
    "coord_quality": "approximate",
    "email": null,
    "fiscal_code": null,
    "description": null,
    "services": []
  },
  {
    "name": "Servicii Funerare Stoica",
    "address": "»òoseaua Bucure»ôti - T√¢rgovi»ôte 171, Mogo»ôoaia 077135",
    "city": "Bucure»ôti",
    "county": "Bucure»ôti",
    "phone": "0733 976 000",
    "website": null,
    "rating": 5.0,
    "review_count": 50,
    "business_hours": null,
    "is_non_stop": true,
    "category": "Servicii funerare",
    "latitude": 44.5334982,
    "longitude": 25.842984,
    "place_id": "0x40b205f22803a4d5:0xa1782c6a2d6fb7ed",
    "coord_quality": "approximate",
    "email": null,
    "fiscal_code": null,
    "description": null,
    "services": []
  },
  {
    "name": "Agentia Funerara Sfanta Maria",
    "address": "»òoseaua Giurgiului 31, Bucure»ôti 052034",
    "city": "Bucure»ôti",
    "county": "Bucure»ôti",
    "phone": "0768 879 149",
    "website": "https://serviciifuneraremirgal.ro",
    "rating": 4.7,
    "review_count": 50,
    "business_hours": {
      "text": "Deschis nonstop"
    },
    "is_non_stop": true,
    "category": "Servicii funerare",
    "latitude": 44.3993774,
    "longitude": 25.9447795,
    "place_id": "0x40b1ffd10c8cb5ed:0xfac237fdc1db0551",
    "coord_quality": "approximate",
    "email": null,
    "fiscal_code": null,
    "description": null,
    "services": []
  },
  {
    "name": "Agentia Funerara Paul",
    "address": "Strada Doctor Calistrat Grozovici 2, Bucure»ôti",
    "city": "Bucure»ôti",
    "county": "Bucure»ôti",
    "phone": "0769 990 000",
    "website": null,
    "rating": 4.2,
    "review_count": 50,
    "business_hours": null,
    "is_non_stop": true,
    "category": "Servicii funerare",
    "latitude": 44.3993774,
    "longitude": 25.9447795,
    "place_id": "0x40b1f90058fef207:0xb9ae58434f5de1b1",
    "coord_quality": "approximate",
    "email": null,
    "fiscal_code": null,
    "description": null,
    "services": []
  },
  {
    "name": "Agp Funerare",
    "address": "Bulevardul 1 Decembrie 1918 1, Ro»ôu 779131",
    "city": "Bucure»ôti",
    "county": "Bucure»ôti",
    "phone": "0733 863 727",
    "website": "https://funerare-ieftine.ro",
    "rating": 5.0,
    "review_count": 50,
    "business_hours": null,
    "is_non_stop": true,
    "category": "Servicii funerare",
    "latitude": 44.3993774,
    "longitude": 25.9447795,
    "place_id": "0x40b1f93457260d21:0x66904aeccbf5a009",
    "coord_quality": "approximate",
    "email": null,
    "fiscal_code": null,
    "description": null,
    "services": []
  },
  {
    "name": "Servicii Funerare Premium",
    "address": "Strada Dumitru Pene»ô 9, Bucure»ôti 052034",
    "city": "Bucure»ôti",
    "county": "Bucure»ôti",
    "phone": "0762 326 176",
    "website": "https://serviciifunerareinbucuresti.ro",
    "rating": 5.0,
    "review_count": 50,
    "business_hours": null,
    "is_non_stop": true,
    "category": "Servicii funerare",
    "latitude": 44.3993774,
    "longitude": 25.9447795,
    "place_id": "0x40b1ff6ddb7deee9:0x59e1241f43aa9724",
    "coord_quality": "approximate",
    "email": null,
    "fiscal_code": null,
    "description": null,
    "services": []
  },
  {
    "name": "Servicii Funerare Mirgal",
    "address": "Strada Dumitru DrƒÉgan 13, Bucure»ôti 032031",
    "city": "Bucure»ôti",
    "county": "Bucure»ôti",
    "phone": "0763 100 200",
    "website": "https://serviciifunerareluca.ro",
    "rating": 5.0,
    "review_count": 43,
    "business_hours": null,
    "is_non_stop": true,
    "category": "Servicii funerare",
    "latitude": 44.3993774,
    "longitude": 25.9447795,
    "place_id": "0x40b1ff583dfffecd:0xec36cad5354ca9aa",
    "coord_quality": "approximate",
    "email": null,
    "fiscal_code": null,
    "description": null,
    "services": []
  },
  {
    "name": "Servicii Funerare Spitalul Colentina",
    "address": "Aleea Barajul DunƒÉrii 12A, Bucure»ôti 032758",
    "city": "Bucure»ôti",
    "county": "Bucure»ôti",
    "phone": "0724 070 932",
    "website": "https://funeraretudor.ro",
    "rating": 5.0,
    "review_count": 49,
    "business_hours": null,
    "is_non_stop": true,
    "category": "Servicii funerare",
    "latitude": 44.3993774,
    "longitude": 25.9447795,
    "place_id": "0x45f9d88fef161cef:0xcda65ad36e3a9d0c",
    "coord_quality": "approximate",
    "email": null,
    "fiscal_code": null,
    "description": null,
    "services": []
  },
  {
    "name": "Servicii Funerare Bucure»ôti One Marck International",
    "address": "Calea Grivi»õei 95-97, Bucure»ôti",
    "city": "Bucure»ôti",
    "county": "Bucure»ôti",
    "phone": "0764 690 865",
    "website": "https://casafunerarablaj.ro",
    "rating": 5.0,
    "review_count": 50,
    "business_hours": null,
    "is_non_stop": true,
    "category": "Pompe funebre",
    "latitude": 44.3993774,
    "longitude": 25.9447795,
    "place_id": "0x40b203f5fe68478d:0x419d9256c0015aba",
    "coord_quality": "approximate",
    "email": null,
    "fiscal_code": null,
    "description": null,
    "services": []
  },
  {
    "name": "Funerare Complete + Transport - CristiPaula",
    "address": "Strada Aron Cotru»ô 51, Bucure»ôti 014131",
    "city": "Bucure»ôti",
    "county": "Bucure»ôti",
    "phone": "0769 990 000",
    "website": "https://funerarii-bucuresti.ro",
    "rating": 5.0,
    "review_count": 50,
    "business_hours": null,
    "is_non_stop": true,
    "category": "Servicii funerare",
    "latitude": 44.3993774,
    "longitude": 25.9447795,
    "place_id": "0x40b203a9dd52e6eb:0x6c8190686d427d49",
    "coord_quality": "approximate",
    "email": null,
    "fiscal_code": null,
    "description": null,
    "services": []
  },
  {
    "name": "Casa Funerara Luca",
    "address": "Bulevardul Ion C. BrƒÉtianu 30, Bucure»ôti 030167",
    "city": "Bucure»ôti",
    "county": "Bucure»ôti",
    "phone": "0747 117 117",
    "website": "https://funerare-funebre-bucuresti.ro",
    "rating": 4.3,
    "review_count": 50,
    "business_hours": null,
    "is_non_stop": true,
    "category": "Servicii funerare",
    "latitude": 44.3993774,
    "longitude": 25.9447795,
    "place_id": "0x40b20396e7a289a5:0xdb856c87efa0f075",
    "coord_quality": "approximate",
    "email": null,
    "fiscal_code": null,
    "description": null,
    "services": []
  },
  {
    "name": "Tudor Servicii Funerare",
    "address": "Strada Lizeanu 32, Bucure»ôti 021111",
    "city": "Bucure»ôti",
    "county": "Bucure»ôti",
    "phone": "0747 660 666",
    "website": "https://funeraresector2.ro",
    "rating": 4.9,
    "review_count": 50,
    "business_hours": null,
    "is_non_stop": true,
    "category": "Servicii funerare",
    "latitude": 44.3993774,
    "longitude": 25.9447795,
    "place_id": "0x40b1f9c6bd8bbc2d:0x6d7e6913ac587d99",
    "coord_quality": "approximate",
    "email": null,
    "fiscal_code": null,
    "description": null,
    "services": []
  },
  {
    "name": "Servicii Funerare Complete - Casa Blaj",
    "address": "Strada Garoafei, Pantelimon 077145",
    "city": "Bucure»ôti",
    "county": "Bucure»ôti",
    "phone": "0784 763 663",
    "website": "https://casafunerarasimion.ro",
    "rating": 5.0,
    "review_count": 50,
    "business_hours": null,
    "is_non_stop": true,
    "category": "Servicii funerare",
    "latitude": 44.3993774,
    "longitude": 25.9447795,
    "place_id": "0x40b1f95e4c762d47:0xf305c6d913c71a02",
    "coord_quality": "approximate",
    "email": null,
    "fiscal_code": null,
    "description": null,
    "services": []
  },
  {
    "name": "Casa Funerara Bucur",
    "address": "Prelungirea Ferentari nr 78, Bucure»ôti 051871",
    "city": "Bucure»ôti",
    "county": "Bucure»ôti",
    "phone": "0728 654 781",
    "website": null,
    "rating": 5.0,
    "review_count": 50,
    "business_hours": null,
    "is_non_stop": true,
    "category": "Servicii funerare",
    "latitude": 44.3993774,
    "longitude": 25.9447795,
    "place_id": "0x40b1ff5b7cea6997:0xc9e3f339eceb6e04",
    "coord_quality": "approximate",
    "email": null,
    "fiscal_code": null,
    "description": null,
    "services": []
  },
  {
    "name": "RIP Funerals",
    "address": "Calea Grivi»õei 202, Bucure»ôti 010755",
    "city": "Bucure»ôti",
    "county": "Bucure»ôti",
    "phone": "0747 732 258",
    "website": "https://funeraremalina.ro",
    "rating": 5.0,
    "review_count": 50,
    "business_hours": null,
    "is_non_stop": true,
    "category": "Servicii funerare",
    "latitude": 44.3993774,
    "longitude": 25.9447795,
    "place_id": "0x40b2018ac02f9731:0xacb4707ecaa3943c",
    "coord_quality": "approximate",
    "email": null,
    "fiscal_code": null,
    "description": null,
    "services": []
  },
  {
    "name": "CENTRU FUNERAR ST PATRICKS SECTOR 2, LIZEANU",
    "address": "Strada Tudor Vladimirescu, Pantelimon 077145",
    "city": "Bucure»ôti",
    "county": "Bucure»ôti",
    "phone": "0766 833 482",
    "website": "https://serviciifunerarepantelimon.ro",
    "rating": 5.0,
    "review_count": 37,
    "business_hours": null,
    "is_non_stop": true,
    "category": "Servicii funerare",
    "latitude": 44.3993774,
    "longitude": 25.9447795,
    "place_id": "0x40b1f98c4aac2809:0xd0c48ae62ffbf758",
    "coord_quality": "approximate",
    "email": null,
    "fiscal_code": null,
    "description": null,
    "services": []
  },
  {
    "name": "Casa Funerara Simion",
    "address": "»òos. Pantelimon 219, Bucure»ôti 021599",
    "city": "Bucure»ôti",
    "county": "Bucure»ôti",
    "phone": "0730 456 865",
    "website": "https://casafunerara-alexgrup.ro",
    "rating": 5.0,
    "review_count": 50,
    "business_hours": null,
    "is_non_stop": true,
    "category": "Servicii funerare",
    "latitude": 44.3993774,
    "longitude": 25.9447795,
    "place_id": "0x40b1f957b94a6541:0x9e4de2cda78a3c0b",
    "coord_quality": "approximate",
    "email": null,
    "fiscal_code": null,
    "description": null,
    "services": []
  },
  {
    "name": "Servicii funerare Colt de Rai Exclusiv SRL",
    "address": "Strada Valea Ialomi»õei, Bucure»ôti 032372",
    "city": "Bucure»ôti",
    "county": "Bucure»ôti",
    "phone": "0771 542 597",
    "website": null,
    "rating": 5.0,
    "review_count": 50,
    "business_hours": null,
    "is_non_stop": true,
    "category": "Servicii funerare",
    "latitude": 44.3993774,
    "longitude": 25.9447795,
    "place_id": "0x40b1ffcdb907e109:0xde41f5ca640ea52f",
    "coord_quality": "approximate",
    "email": null,
    "fiscal_code": null,
    "description": null,
    "services": []
  },
  {
    "name": "Funerare MƒÉlina",
    "address": "»òoseaua Colentina 60, Bucure»ôti 077190",
    "city": "Bucure»ôti",
    "county": "Bucure»ôti",
    "phone": "0769 990 000",
    "website": "https://funerarii-bucuresti.ro",
    "rating": 5.0,
    "review_count": 50,
    "business_hours": null,
    "is_non_stop": true,
    "category": "Servicii funerare",
    "latitude": 44.3993774,
    "longitude": 25.9447795,
    "place_id": "0x40b1f960073bf8e1:0xd11c489baaf3cd94",
    "coord_quality": "approximate",
    "email": null,
    "fiscal_code": null,
    "description": null,
    "services": []
  },
  {
    "name": "Servicii Funerare Complete Pantelimon - Non-Stop",
    "address": "Bulevardul Tineretului 40, Bucure»ôti",
    "city": "Bucure»ôti",
    "county": "Bucure»ôti",
    "phone": "0747 117 117",
    "website": "https://funerare-funebre-bucuresti.ro",
    "rating": 3.7,
    "review_count": 50,
    "business_hours": null,
    "is_non_stop": true,
    "category": "Servicii funerare",
    "latitude": 44.3993774,
    "longitude": 25.9447795,
    "place_id": "0x40b1fecc747f1e7f:0xa7f1d6af40d4f9b8",
    "coord_quality": "approximate",
    "email": null,
    "fiscal_code": null,
    "description": null,
    "services": []
  },
  {
    "name": "Servicii Funerare Alex Group",
    "address": "Strada Stupilor, Bucure»ôti 077120",
    "city": "Bucure»ôti",
    "county": "Bucure»ôti",
    "phone": null,
    "website": "https://facebook.com",
    "rating": 5.0,
    "review_count": 50,
    "business_hours": null,
    "is_non_stop": true,
    "category": "Servicii funerare",
    "latitude": 44.3993774,
    "longitude": 25.9447795,
    "place_id": "0x40b1fe171addd25d:0xe0c31a37b6aedc43",
    "coord_quality": "approximate",
    "email": null,
    "fiscal_code": null,
    "description": null,
    "services": []
  },
  {
    "name": "Servicii Funerare Divin sector 6",
    "address": "»òoseaua Giurgiului 247, Bucure»ôti 040684",
    "city": "Bucure»ôti",
    "county": "Bucure»ôti",
    "phone": "0722 636 604",
    "website": "https://serv-funerare.ro",
    "rating": 5.0,
    "review_count": 50,
    "business_hours": null,
    "is_non_stop": true,
    "category": "Pompe funebre",
    "latitude": 44.3993774,
    "longitude": 25.9447795,
    "place_id": "0x40b1fe28b52bf853:0x576890ccee264d2c",
    "coord_quality": "approximate",
    "email": null,
    "fiscal_code": null,
    "description": null,
    "services": []
  },
  {
    "name": "Servicii Funerare Bucur",
    "address": "Strada Stoian Militaru 104, Bucure»ôti 044056",
    "city": "Bucure»ôti",
    "county": "Bucure»ôti",
    "phone": "0739 631 919",
    "website": "https://facebook.com",
    "rating": 5.0,
    "review_count": 50,
    "business_hours": null,
    "is_non_stop": true,
    "category": "Servicii funerare",
    "latitude": 44.3993774,
    "longitude": 25.9447795,
    "place_id": "0x40b1ffe367cb278b:0xfbf3c1b79c183c1c",
    "coord_quality": "approximate",
    "email": null,
    "fiscal_code": null,
    "description": null,
    "services": []
  },
  {
    "name": "Servicii Funerare Bucuresti",
    "address": "Bucure»ôti",
    "city": "Bucure»ôti",
    "county": "Bucure»ôti",
    "phone": "0769 990 000",
    "website": "https://funerarii-bucuresti.ro",
    "rating": 5.0,
    "review_count": 50,
    "business_hours": null,
    "is_non_stop": true,
    "category": "Pompe funebre",
    "latitude": 44.3993774,
    "longitude": 25.9447795,
    "place_id": "0x40b1f90072405911:0x3fa57859880ef151",
    "coord_quality": "approximate",
    "email": null,
    "fiscal_code": null,
    "description": null,
    "services": []
  },
  {
    "name": "Sky Funerare",
    "address": "Bulevardul Ghencea 24, Bucure»ôti 061344",
    "city": "Bucure»ôti",
    "county": "Bucure»ôti",
    "phone": "0766 748 138",
    "website": "https://alma-funerare.ro",
    "rating": 5.0,
    "review_count": 50,
    "business_hours": null,
    "is_non_stop": true,
    "category": "Servicii funerare",
    "latitude": 44.3993774,
    "longitude": 25.9447795,
    "place_id": "0x40b20174ebb965b3:0x5ebf2e5ab7a07ab4",
    "coord_quality": "approximate",
    "email": null,
    "fiscal_code": null,
    "description": null,
    "services": []
  },
  {
    "name": "DANI IMPEX",
    "address": "Splaiul Unirii Nr 168, Bucure»ôti 040042",
    "city": "Bucure»ôti",
    "county": "Bucure»ôti",
    "phone": "0769 990 000",
    "website": "https://funerarii-bucuresti.ro",
    "rating": 5.0,
    "review_count": 50,
    "business_hours": null,
    "is_non_stop": true,
    "category": "Pompe funebre",
    "latitude": 44.3993774,
    "longitude": 25.9447795,
    "place_id": "0x40b1ff57da265873:0x301875d0258f88c7",
    "coord_quality": "approximate",
    "email": null,
    "fiscal_code": null,
    "description": null,
    "services": []
  },
  {
    "name": "Servicii Funerare MT",
    "address": "»òoseaua Fundeni nr.154, Bucure»ôti 077086",
    "city": "Bucure»ôti",
    "county": "Bucure»ôti",
    "phone": "0766 207 837",
    "website": "https://casafunerarablaj.ro",
    "rating": 5.0,
    "review_count": 50,
    "business_hours": null,
    "is_non_stop": true,
    "category": "Servicii funerare",
    "latitude": 44.3993774,
    "longitude": 25.9447795,
    "place_id": "0x40b1f91eba512a4d:0x59d3e4563ef1e130",
    "coord_quality": "approximate",
    "email": null,
    "fiscal_code": null,
    "description": null,
    "services": []
  },
  {
    "name": "Servicii Funerare Spitalul \"Sf. Pantelimon\"",
    "address": "»òoseaua Mihai Bravu 138, Bucure»ôti 021314",
    "city": "Bucure»ôti",
    "county": "Bucure»ôti",
    "phone": "0733 344 549",
    "website": null,
    "rating": 5.0,
    "review_count": 50,
    "business_hours": null,
    "is_non_stop": true,
    "category": "Servicii funerare",
    "latitude": 44.3993774,
    "longitude": 25.9447795,
    "place_id": "0x40b1ff9efe718835:0x72aee8170c7ef583",
    "coord_quality": "approximate",
    "email": null,
    "fiscal_code": null,
    "description": null,
    "services": []
  },
  {
    "name": "Funerare Alma",
    "address": "Bulevardul Constantin Br√¢ncoveanu 95b, Bucure»ôti 041441",
    "city": "Bucure»ôti",
    "county": "Bucure»ôti",
    "phone": "0745 768 933",
    "website": "https://fabricadecoroane.com",
    "rating": 5.0,
    "review_count": 50,
    "business_hours": {
      "text": "√énchis ¬∑ Deschide lun. la 08"
    },
    "is_non_stop": true,
    "category": "Servicii funerare",
    "latitude": 44.3993774,
    "longitude": 25.9447795,
    "place_id": "0x40b1ff0f859abaad:0xafa70c743a4ff7a9",
    "coord_quality": "approximate",
    "email": null,
    "fiscal_code": null,
    "description": null,
    "services": []
  },
  {
    "name": "Servicii Funerare",
    "address": "Bulevardul Pipera 26, Voluntari 077190",
    "city": "Bucure»ôti",
    "county": "Bucure»ôti",
    "phone": "0784 097 607",
    "website": "https://funerare24-7.ro",
    "rating": 5.0,
    "review_count": null,
    "business_hours": null,
    "is_non_stop": true,
    "category": "Pompe funebre",
    "latitude": 44.3993774,
    "longitude": 25.9447795,
    "place_id": "0x40b2037d54013a7b:0xc54488b833b25fb8",
    "coord_quality": "approximate",
    "email": null,
    "fiscal_code": null,
    "description": null,
    "services": []
  },
  {
    "name": "Agapie Funerare",
    "address": "Strada Balomir 37, Bucure»ôti 050335",
    "city": "Bucure»ôti",
    "county": "Bucure»ôti",
    "phone": "0769 990 000",
    "website": "https://funerarii-bucuresti.ro",
    "rating": 5.0,
    "review_count": 50,
    "business_hours": null,
    "is_non_stop": true,
    "category": "Servicii funerare",
    "latitude": 44.3993774,
    "longitude": 25.9447795,
    "place_id": "0x40b1ff795f83bad3:0xef9769497d6c4e6d",
    "coord_quality": "approximate",
    "email": null,
    "fiscal_code": null,
    "description": null,
    "services": []
  },
  {
    "name": "Fabrica de Coroane Funerare",
    "address": "»òoseaua Fundeni 174, Bucure»ôti 022317",
    "city": "Bucure»ôti",
    "county": "Bucure»ôti",
    "phone": "0728 341 601",
    "website": "https://sfunerarbucuresti.ro",
    "rating": 5.0,
    "review_count": 50,
    "business_hours": null,
    "is_non_stop": true,
    "category": "Servicii funerare",
    "latitude": 44.3993774,
    "longitude": 25.9447795,
    "place_id": "0x40b1ff3b24760e31:0x6ff18562a10e60af",
    "coord_quality": "approximate",
    "email": null,
    "fiscal_code": null,
    "description": null,
    "services": []
  },
  {
    "name": "Servicii Funerare Complete 24/7",
    "address": "Ro»ôu 077042",
    "city": "Bucure»ôti",
    "county": "Bucure»ôti",
    "phone": "0753 304 050",
    "website": "https://repatrieri-decedati-romania.ro",
    "rating": null,
    "review_count": 50,
    "business_hours": null,
    "is_non_stop": true,
    "category": "Servicii funerare",
    "latitude": 44.3993774,
    "longitude": 25.9447795,
    "place_id": "0x40b200323fdaaaab:0x6610f41a3825b84e",
    "coord_quality": "approximate",
    "email": null,
    "fiscal_code": null,
    "description": null,
    "services": []
  },
  {
    "name": "FPC PRESTARI FUNERARE S.R.L.",
    "address": "Strada Teascului 29, Bucure»ôti 042098",
    "city": "Bucure»ôti",
    "county": "Bucure»ôti",
    "phone": "0722 274 177",
    "website": "https://funerare-complete.ro",
    "rating": 5.0,
    "review_count": 49,
    "business_hours": null,
    "is_non_stop": true,
    "category": "Servicii funerare",
    "latitude": 44.3993774,
    "longitude": 25.9447795,
    "place_id": "0x40b1fd398d05d399:0x1d08ff2bcab17eaa",
    "coord_quality": "approximate",
    "email": null,
    "fiscal_code": null,
    "description": null,
    "services": []
  },
  {
    "name": "Servicii Funerare Sector 1, Bucuresti. Pompe Funebre, Funerare Non Stop. Funerare Ghita Anda (Boboc)",
    "address": "Cartier FUNDENI, »òoseaua Fundeni 264, 022329",
    "city": "Cartier FUNDENI",
    "county": "Bucure»ôti",
    "phone": "0769 658 216",
    "website": "https://funerarenonstop-bucuresti.ro",
    "rating": 5.0,
    "review_count": 50,
    "business_hours": null,
    "is_non_stop": true,
    "category": "Servicii funerare",
    "latitude": 44.3993774,
    "longitude": 25.9447795,
    "place_id": "0x40b1f8e56ee5aec7:0x1fdfcca3e973ae1",
    "coord_quality": "approximate",
    "email": null,
    "fiscal_code": null,
    "description": null,
    "services": []
  },
  {
    "name": "Servicii funerare Dorobantu Repatriere decedati",
    "address": "»òoseaua Colentina 367, Bucure»ôti 021171",
    "city": "Bucure»ôti",
    "county": "Bucure»ôti",
    "phone": "0750 664 501",
    "website": null,
    "rating": 5.0,
    "review_count": 50,
    "business_hours": null,
    "is_non_stop": true,
    "category": "Servicii funerare",
    "latitude": 44.3993774,
    "longitude": 25.9447795,
    "place_id": "0x40b1f932011781d1:0x9468b71bebdb8edb",
    "coord_quality": "approximate",
    "email": null,
    "fiscal_code": null,
    "description": null,
    "services": []
  },
  {
    "name": "Servicii Funerare Spitalul Coltea",
    "address": "Calea Bucure»ôti 11, B√¢cu 087151",
    "city": "Bucure»ôti",
    "county": "Bucure»ôti",
    "phone": "0730 146 274",
    "website": "https://facebook.com",
    "rating": 5.0,
    "review_count": null,
    "business_hours": null,
    "is_non_stop": true,
    "category": "Servicii funerare",
    "latitude": 44.4832613,
    "longitude": 25.7133887,
    "place_id": "0x40b207bf23569cf7:0x5da12ee172c88f28",
    "coord_quality": "approximate",
    "email": null,
    "fiscal_code": null,
    "description": null,
    "services": []
  },
  {
    "name": "Expert",
    "address": "Calea Giule»ôti 113, Bucure»ôti 060259",
    "city": "Bucure»ôti",
    "county": "Bucure»ôti",
    "phone": "0731 588 550",
    "website": "https://razvanserviciifunerare.ro",
    "rating": 5.0,
    "review_count": 49,
    "business_hours": null,
    "is_non_stop": true,
    "category": "Servicii funerare",
    "latitude": 44.4606546,
    "longitude": 25.8938494,
    "place_id": "0x40b2022aab9a6779:0x496073d580e9cd84",
    "coord_quality": "approximate",
    "email": null,
    "fiscal_code": null,
    "description": null,
    "services": []
  },
  {
    "name": "Servicii Funerare Andrei (Joi»õa)",
    "address": "Strada LƒÉzƒÉreni 58, Bucure»ôti 033082",
    "city": "Bucure»ôti",
    "county": "Bucure»ôti",
    "phone": "0762 017 607",
    "website": "https://casafuneraradobrin.ro",
    "rating": null,
    "review_count": 50,
    "business_hours": null,
    "is_non_stop": true,
    "category": "Servicii funerare",
    "latitude": 44.4606546,
    "longitude": 25.8938494,
    "place_id": "0x40b1fb926ad042d1:0xde61a06decd11706",
    "coord_quality": "approximate",
    "email": null,
    "fiscal_code": null,
    "description": null,
    "services": []
  },
  {
    "name": "Razvan Servicii Funerare",
    "address": "Calea Grivi»õei 95-97, Bucure»ôti",
    "city": "Bucure»ôti",
    "county": "Bucure»ôti",
    "phone": "0766 207 837",
    "website": "https://casa-funerara-blaj.ro",
    "rating": 4.9,
    "review_count": 50,
    "business_hours": null,
    "is_non_stop": true,
    "category": "Servicii funerare",
    "latitude": 44.4606546,
    "longitude": 25.8938494,
    "place_id": "0x40b1ff57c6c42b47:0x7b375b88d0db5537",
    "coord_quality": "approximate",
    "email": null,
    "fiscal_code": null,
    "description": null,
    "services": []
  },
  {
    "name": "S.C. Casa Funerara Dobrin",
    "address": "Bulevardul Constantin Br√¢ncoveanu 118, Bucure»ôti 077120",
    "city": "Bucure»ôti",
    "county": "Bucure»ôti",
    "phone": "0766 833 482",
    "website": "https://serviciifunerarepantelimon.ro",
    "rating": 5.0,
    "review_count": null,
    "business_hours": null,
    "is_non_stop": true,
    "category": "Servicii funerare",
    "latitude": 44.4606546,
    "longitude": 25.8938494,
    "place_id": "0x40b1fffada0aa815:0x6d8e09913c13dc0e",
    "coord_quality": "approximate",
    "email": null,
    "fiscal_code": null,
    "description": null,
    "services": []
  },
  {
    "name": "Pompe Funebre Non Stop - Casa Funerara Blaj",
    "address": "Strada MƒÉrgeanului, Bucure»ôti 052034",
    "city": "Bucure»ôti",
    "county": "Bucure»ôti",
    "phone": "0766 833 482",
    "website": "https://serviciifunerarepantelimon.ro",
    "rating": 5.0,
    "review_count": null,
    "business_hours": null,
    "is_non_stop": true,
    "category": "Pompe funebre",
    "latitude": 44.4606546,
    "longitude": 25.8938494,
    "place_id": "0x40b1ff7ea6e15ffd:0x8b9bd02bb4533325",
    "coord_quality": "approximate",
    "email": null,
    "fiscal_code": null,
    "description": null,
    "services": []
  },
  {
    "name": "Servicii Funerare Lary",
    "address": "Str. Lt. Ilie N. C√¢mpeanu 9, Bucure»ôti 051964",
    "city": "Bucure»ôti",
    "county": "Bucure»ôti",
    "phone": "0760 184 123",
    "website": "https://serviciifunerarerahova.ro",
    "rating": null,
    "review_count": 50,
    "business_hours": null,
    "is_non_stop": true,
    "category": "Servicii funerare",
    "latitude": 44.4606546,
    "longitude": 25.8938494,
    "place_id": "0x40b1ff3d865692bb:0x402c7d413fbcc8e1",
    "coord_quality": "approximate",
    "email": null,
    "fiscal_code": null,
    "description": null,
    "services": []
  },
  {
    "name": "Servicii Funerare Lary Rahova",
    "address": "077090 Domne»ôti",
    "city": "Bucure»ôti",
    "county": "Bucure»ôti",
    "phone": "0769 990 000",
    "website": "https://funerarii-bucuresti.ro",
    "rating": null,
    "review_count": 50,
    "business_hours": null,
    "is_non_stop": true,
    "category": "Servicii funerare",
    "latitude": 44.4606546,
    "longitude": 25.8938494,
    "place_id": "0x40adf8b45e774937:0x70b904ecb40e35bd",
    "coord_quality": "approximate",
    "email": null,
    "fiscal_code": null,
    "description": null,
    "services": []
  },
  {
    "name": "Servicii Funerare Ababei",
    "address": "»òoseaua Mihai Bravu Nr 329, Bucure»ôti 030312",
    "city": "Bucure»ôti",
    "county": "Bucure»ôti",
    "phone": "0785 165 165",
    "website": "https://pompe-funebrebucuresti.ro",
    "rating": 5.0,
    "review_count": 50,
    "business_hours": null,
    "is_non_stop": true,
    "category": "Servicii funerare",
    "latitude": 44.4606546,
    "longitude": 25.8938494,
    "place_id": "0x40b1ffac43ec737b:0x67686a0a1445bf23",
    "coord_quality": "approximate",
    "email": null,
    "fiscal_code": null,
    "description": null,
    "services": []
  },
  {
    "name": "Servicii Funerare Domnesti",
    "address": "Str. Valea LungƒÉ 1, Bucure»ôti 077042",
    "city": "Bucure»ôti",
    "county": "Bucure»ôti",
    "phone": "0723 389 153",
    "website": "https://servicii-funerare-sector6.ro",
    "rating": 5.0,
    "review_count": 50,
    "business_hours": null,
    "is_non_stop": true,
    "category": "Servicii funerare",
    "latitude": 44.4606546,
    "longitude": 25.8938494,
    "place_id": "0x40b201fb455bb7ff:0x264b1204e7eeb16a",
    "coord_quality": "approximate",
    "email": null,
    "fiscal_code": null,
    "description": null,
    "services": []
  },
  {
    "name": "Agentia Funerara Argo",
    "address": "»òoseaua Nicolae Titulescu Nr 16, Bucure»ôti 011142",
    "city": "Bucure»ôti",
    "county": "Bucure»ôti",
    "phone": "0764 714 714",
    "website": "https://pompe-funebre-bucuresti-nonstop.ro",
    "rating": 5.0,
    "review_count": 50,
    "business_hours": null,
    "is_non_stop": true,
    "category": "Pompe funebre",
    "latitude": 44.4606546,
    "longitude": 25.8938494,
    "place_id": "0x40b20148ed150385:0x80db268d2c23b596",
    "coord_quality": "approximate",
    "email": null,
    "fiscal_code": null,
    "description": null,
    "services": []
  },
  {
    "name": "Servicii funerare Sector 6 - Botonea",
    "address": "»òoseaua Berceni 12, Bucure»ôti 077160",
    "city": "Bucure»ôti",
    "county": "Bucure»ôti",
    "phone": "0769 990 000",
    "website": "https://funerarii-bucuresti.ro",
    "rating": 5.0,
    "review_count": 50,
    "business_hours": null,
    "is_non_stop": true,
    "category": "Pompe funebre",
    "latitude": 44.4606546,
    "longitude": 25.8938494,
    "place_id": "0x40b1fe6cf96f37df:0xcad0919d1bf2d9c9",
    "coord_quality": "approximate",
    "email": null,
    "fiscal_code": null,
    "description": null,
    "services": []
  },
  {
    "name": "SKY Funerare ‚úùÔ∏è Non Stop ‚úùÔ∏è",
    "address": "Strada Grigore Ionescu 64, Bucure»ôti 023548",
    "city": "Bucure»ôti",
    "county": "Bucure»ôti",
    "phone": "0723 965 727",
    "website": "https://webnode.ro",
    "rating": 5.0,
    "review_count": 36,
    "business_hours": null,
    "is_non_stop": true,
    "category": "Servicii funerare",
    "latitude": 44.4606546,
    "longitude": 25.8938494,
    "place_id": "0x40b1f8b8ca73109d:0xe5df573411cee81b",
    "coord_quality": "approximate",
    "email": null,
    "fiscal_code": null,
    "description": null,
    "services": []
  },
  {
    "name": "Servicii Funerare Spitalul Bagdasar",
    "address": "strada Muguras 11, Domne»ôti 077090",
    "city": "Bucure»ôti",
    "county": "Bucure»ôti",
    "phone": "0785 822 299",
    "website": "https://funebrebucuresti.ro",
    "rating": 5.0,
    "review_count": 50,
    "business_hours": null,
    "is_non_stop": true,
    "category": "Servicii funerare",
    "latitude": 44.4606546,
    "longitude": 25.8938494,
    "place_id": "0x40adff47df73a715:0xf802694f4defdb3d",
    "coord_quality": "approximate",
    "email": null,
    "fiscal_code": null,
    "description": null,
    "services": []
  },
  {
    "name": "servicii funerare encea",
    "address": "»òoseaua Giurgiului 42, Bucure»ôti",
    "city": "Bucure»ôti",
    "county": "Bucure»ôti",
    "phone": "0769 990 000",
    "website": "https://funerarii-bucuresti.ro",
    "rating": 3.6,
    "review_count": 50,
    "business_hours": null,
    "is_non_stop": true,
    "category": "Servicii funerare",
    "latitude": 44.4606546,
    "longitude": 25.8938494,
    "place_id": "0x40b1ff95e71ba7e5:0xdafb2e7012c635a1",
    "coord_quality": "approximate",
    "email": null,
    "fiscal_code": null,
    "description": null,
    "services": []
  },
  {
    "name": "Funerare Bucuresti Ilfov | Pompe Funebre Bucuresti Sector 1,2,3,4,5,6 Ilfov | Servicii Funerare Zappy",
    "address": "Strada Topora»ôi 60, Bucure»ôti 052034",
    "city": "Bucure»ôti",
    "county": "Bucure»ôti",
    "phone": "0728 654 781",
    "website": null,
    "rating": 5.0,
    "review_count": null,
    "business_hours": null,
    "is_non_stop": true,
    "category": "Servicii funerare",
    "latitude": 44.4606546,
    "longitude": 25.8938494,
    "place_id": "0x40b1ff8dc053bf83:0xa5465d4b49e7abe4",
    "coord_quality": "approximate",
    "email": null,
    "fiscal_code": null,
    "description": null,
    "services": []
  },
  {
    "name": "Servicii Funerare Andreea Sandu",
    "address": "Bulevardul Constantin Br√¢ncoveanu, Bucure»ôti 032872",
    "city": "Bucure»ôti",
    "county": "Bucure»ôti",
    "phone": "0771 542 597",
    "website": null,
    "rating": null,
    "review_count": 50,
    "business_hours": null,
    "is_non_stop": true,
    "category": "Servicii funerare",
    "latitude": 44.4606546,
    "longitude": 25.8938494,
    "place_id": "0x40b1ffa1aa6fc5b7:0x1c236858078a41da",
    "coord_quality": "approximate",
    "email": null,
    "fiscal_code": null,
    "description": null,
    "services": []
  },
  {
    "name": "Servicii Funerare Divin Otopeni",
    "address": "Strada √énvingƒÉtorilor 22, Bucure»ôti 030922",
    "city": "Bucure»ôti",
    "county": "Bucure»ôti",
    "phone": "0737 600 900",
    "website": "https://memorium.ro",
    "rating": 5.0,
    "review_count": 50,
    "business_hours": {
      "text": "Deschis nonstop"
    },
    "is_non_stop": true,
    "category": "Servicii funerare",
    "latitude": 44.4606546,
    "longitude": 25.8938494,
    "place_id": "0x40b1ffdb7760099b:0x8d7767b71385bea3",
    "coord_quality": "approximate",
    "email": null,
    "fiscal_code": null,
    "description": null,
    "services": []
  },
  {
    "name": "Servicii Funerare Divin Sector 4",
    "address": "Strada Teascului 29, Bucure»ôti 042098",
    "city": "Bucure»ôti",
    "county": "Bucure»ôti",
    "phone": "0722 274 177",
    "website": "https://funerare-complete.ro",
    "rating": 5.0,
    "review_count": 49,
    "business_hours": null,
    "is_non_stop": true,
    "category": "Pompe funebre",
    "latitude": 44.4606546,
    "longitude": 25.8938494,
    "place_id": "0x40b1fd398d05d399:0x1d08ff2bcab17eaa",
    "coord_quality": "approximate",
    "email": null,
    "fiscal_code": null,
    "description": null,
    "services": []
  },
  {
    "name": "MEMORIUM - Servicii Funerare",
    "address": "Cartier FUNDENI, »òoseaua Fundeni 264, 022329",
    "city": "Cartier FUNDENI",
    "county": "Bucure»ôti",
    "phone": "0769 658 216",
    "website": "https://funerarenonstop-bucuresti.ro",
    "rating": 5.0,
    "review_count": 50,
    "business_hours": null,
    "is_non_stop": true,
    "category": "Pompe funebre",
    "latitude": 44.4606546,
    "longitude": 25.8938494,
    "place_id": "0x40b1f8e56ee5aec7:0x1fdfcca3e973ae1",
    "coord_quality": "approximate",
    "email": null,
    "fiscal_code": null,
    "description": null,
    "services": []
  },
  {
    "name": "Serenitas - Servicii Funerare Complete Buftea",
    "address": "Bulevardul Mihai Eminescu 32, Buftea 070000",
    "city": "Bucure»ôti",
    "county": "Bucure»ôti",
    "phone": "0742 821 047",
    "website": null,
    "rating": 5.0,
    "review_count": 50,
    "business_hours": null,
    "is_non_stop": true,
    "category": "Servicii funerare",
    "latitude": 44.4606546,
    "longitude": 25.8938494,
    "place_id": "0x40b205ce27ce95a5:0xa56e22a287006503",
    "coord_quality": "approximate",
    "email": null,
    "fiscal_code": null,
    "description": null,
    "services": []
  },
  {
    "name": "Rimpianti Funerare",
    "address": "Strada Ion »òahighian 2, Bucure»ôti 032804",
    "city": "Bucure»ôti",
    "county": "Bucure»ôti",
    "phone": "0744 696 744",
    "website": "https://rimpiantifunerare.ro",
    "rating": 4.5,
    "review_count": 45,
    "business_hours": null,
    "is_non_stop": true,
    "category": "Servicii funerare",
    "latitude": 44.4606546,
    "longitude": 25.8938494,
    "place_id": "0xacdd502500d464d7:0x1c917b28395c1915",
    "coord_quality": "approximate",
    "email": null,
    "fiscal_code": null,
    "description": null,
    "services": []
  },
  {
    "name": "Servicii Funerare Dumitrescu",
    "address": "Strada Lizeanu 10, Bucure»ôti",
    "city": "Bucure»ôti",
    "county": "Bucure»ôti",
    "phone": "0730 820 875",
    "website": null,
    "rating": 5.0,
    "review_count": 50,
    "business_hours": null,
    "is_non_stop": true,
    "category": "Servicii funerare",
    "latitude": 44.4606546,
    "longitude": 25.8938494,
    "place_id": "0x40b1f8c82f1df285:0xdc091626a68df6e5",
    "coord_quality": "approximate",
    "email": null,
    "fiscal_code": null,
    "description": null,
    "services": []
  },
  {
    "name": "Servicii funerare - casa funerara alex",
    "address": "Calea »òerban VodƒÉ 256, Bucure»ôti 052034",
    "city": "Bucure»ôti",
    "county": "Bucure»ôti",
    "phone": "0761 121 702",
    "website": "https://serviciifunerare-nonstop.ro",
    "rating": null,
    "review_count": null,
    "business_hours": null,
    "is_non_stop": true,
    "category": "Servicii funerare",
    "latitude": 44.4606546,
    "longitude": 25.8938494,
    "place_id": "0x40b1ff3067d4eceb:0xe189e8e4852b4201",
    "coord_quality": "approximate",
    "email": null,
    "fiscal_code": null,
    "description": null,
    "services": []
  },
  {
    "name": "Cristi",
    "address": "bl 9A, »òos. Pantelimon 291, Bucure»ôti 314555",
    "city": "Bucure»ôti",
    "county": "Bucure»ôti",
    "phone": "0763 631 849",
    "website": "https://funerarenonstop.ro",
    "rating": 4.2,
    "review_count": 42,
    "business_hours": null,
    "is_non_stop": true,
    "category": "Servicii funerare",
    "latitude": 44.4606546,
    "longitude": 25.8938494,
    "place_id": "0x40b1f96f31c2b121:0x3bfbc3173190fa76",
    "coord_quality": "approximate",
    "email": null,
    "fiscal_code": null,
    "description": null,
    "services": []
  },
  {
    "name": "Rofu",
    "address": "Strada Mircea VulcƒÉnescu 94, Bucure»ôti 010825",
    "city": "Bucure»ôti",
    "county": "Bucure»ôti",
    "phone": "021 9985",
    "website": "https://rofu.ro",
    "rating": null,
    "review_count": null,
    "business_hours": null,
    "is_non_stop": true,
    "category": "Servicii funerare",
    "latitude": 44.4606546,
    "longitude": 25.8938494,
    "place_id": "0x40b20185a48d06fd:0x64cabe5dd12b2b05",
    "coord_quality": "approximate",
    "email": null,
    "fiscal_code": null,
    "description": null,
    "services": []
  },
  {
    "name": "CHIVOTUL MARE | SERVICII FUNERARE",
    "address": "Strada C√¢mpia LibertƒÉ»õii 60, Bucure»ôti 030376",
    "city": "Bucure»ôti",
    "county": "Bucure»ôti",
    "phone": "0765 423 620",
    "website": "https://chivotulmare.ro",
    "rating": 5.0,
    "review_count": 50,
    "business_hours": {
      "text": "Deschis nonstop"
    },
    "is_non_stop": true,
    "category": "Pompe funebre",
    "latitude": 44.4606546,
    "longitude": 25.8938494,
    "place_id": "0x40b1ff9aed6014f7:0xb3080350a9c12c6d",
    "coord_quality": "approximate",
    "email": null,
    "fiscal_code": null,
    "description": null,
    "services": []
  },
  {
    "name": "Servicii Funerare Sector 3",
    "address": "Strada Plutonier Radu Gheorghe Nr. 12, Bucure»ôti 077160",
    "city": "Bucure»ôti",
    "county": "Bucure»ôti",
    "phone": "0721 944 610",
    "website": "https://casafunerarablaj.ro",
    "rating": null,
    "review_count": null,
    "business_hours": null,
    "is_non_stop": true,
    "category": "Servicii funerare",
    "latitude": 44.4606546,
    "longitude": 25.8938494,
    "place_id": "0x40b1fea1ce0746f5:0x4721cd178c68bea4",
    "coord_quality": "approximate",
    "email": null,
    "fiscal_code": null,
    "description": null,
    "services": []
  },
  {
    "name": "Casa funerara Memorial",
    "address": "»òoseaua Mihai Bravu 380, Bucure»ôti",
    "city": "Bucure»ôti",
    "county": "Bucure»ôti",
    "phone": null,
    "website": "https://casafunerara-memorial.ro",
    "rating": 4.6,
    "review_count": 46,
    "business_hours": null,
    "is_non_stop": true,
    "category": "Servicii de transport",
    "latitude": 44.4606546,
    "longitude": 25.8938494,
    "place_id": "0x40b1ff9477f74d63:0x213db3496683c96b",
    "coord_quality": "approximate",
    "email": null,
    "fiscal_code": null,
    "description": null,
    "services": []
  },
  {
    "name": "Casa funerara Mihai",
    "address": "Strada Solariilor, Clinceni 077060",
    "city": "Bucure»ôti",
    "county": "Bucure»ôti",
    "phone": "0744 326 240",
    "website": "https://funeraremihai.ro",
    "rating": null,
    "review_count": null,
    "business_hours": null,
    "is_non_stop": true,
    "category": "Servicii funerare",
    "latitude": 44.4606546,
    "longitude": 25.8938494,
    "place_id": "0x40adff0636b87405:0xd42a1157521cd3b4",
    "coord_quality": "approximate",
    "email": null,
    "fiscal_code": null,
    "description": null,
    "services": []
  },
  {
    "name": "Athos Servicii Funerare",
    "address": "Strada Meze»ô 14, Bucure»ôti 012662",
    "city": "Bucure»ôti",
    "county": "Bucure»ôti",
    "phone": "0786 738 060",
    "website": "https://funerareathos.ro",
    "rating": 5.0,
    "review_count": 50,
    "business_hours": null,
    "is_non_stop": true,
    "category": "Servicii funerare",
    "latitude": 44.4606546,
    "longitude": 25.8938494,
    "place_id": "0x40b20342b913f5cf:0x88974ffa2274c704",
    "coord_quality": "approximate",
    "email": null,
    "fiscal_code": null,
    "description": null,
    "services": []
  },
  {
    "name": "Funerare La Madlen",
    "address": "Strada Fanionului 69, Bucure»ôti 012854",
    "city": "Bucure»ôti",
    "county": "Bucure»ôti",
    "phone": "0744 150 830",
    "website": "https://facebook.com",
    "rating": 5.0,
    "review_count": 50,
    "business_hours": null,
    "is_non_stop": true,
    "category": "Servicii funerare",
    "latitude": 44.4606546,
    "longitude": 25.8938494,
    "place_id": "0x40b203280faa51db:0x5afc9e79780639dd",
    "coord_quality": "approximate",
    "email": null,
    "fiscal_code": null,
    "description": null,
    "services": []
  },
  {
    "name": "M&K Eden Servicii funerare",
    "address": "Calea »òerban VodƒÉ 222, Bucure»ôti 040216",
    "city": "Bucure»ôti",
    "county": "Bucure»ôti",
    "phone": "0768 608 100",
    "website": "https://q8qo9v.webwave.dev",
    "rating": 5.0,
    "review_count": 50,
    "business_hours": null,
    "is_non_stop": true,
    "category": "Servicii funerare",
    "latitude": 44.4606546,
    "longitude": 25.8938494,
    "place_id": "0x40b1ff001f8f3b07:0x10f93996eb1aa18a",
    "coord_quality": "approximate",
    "email": null,
    "fiscal_code": null,
    "description": null,
    "services": []
  },
  {
    "name": "AGEN»öIA FUNERARA ADYSIM",
    "address": "»òoseaua Chitilei 45, Bucure»ôti 012383",
    "city": "Bucure»ôti",
    "county": "Bucure»ôti",
    "phone": "0765 576 051",
    "website": "https://imperium-funerare.ro",
    "rating": 5.0,
    "review_count": 48,
    "business_hours": null,
    "is_non_stop": true,
    "category": "Pompe funebre",
    "latitude": 44.4779594,
    "longitude": 25.8877345,
    "place_id": "0x40b2031cb908f181:0xfe16b52e0460508b",
    "coord_quality": "approximate",
    "email": null,
    "fiscal_code": null,
    "description": null,
    "services": []
  },
  {
    "name": "CENTRUL FUNERAR ST PATRICKS VIP DECESE",
    "address": "Strada Stelea SpƒÉtarul 11A, Bucure»ôti 030167",
    "city": "Bucure»ôti",
    "county": "Bucure»ôti",
    "phone": "0761 903 090",
    "website": "https://pompefunebrebucurestinonstop.ro",
    "rating": 4.9,
    "review_count": 49,
    "business_hours": null,
    "is_non_stop": true,
    "category": "Pompe funebre",
    "latitude": 44.4779594,
    "longitude": 25.8877345,
    "place_id": "0x40b1ff3c26f29ceb:0x38ccbb975134b4fc",
    "coord_quality": "approximate",
    "email": null,
    "fiscal_code": null,
    "description": null,
    "services": []
  },
  {
    "name": "Onix Funerare",
    "address": "»òos. Pantelimon 291, Bucure»ôti 021616",
    "city": "Bucure»ôti",
    "county": "Bucure»ôti",
    "phone": "0768 104 444",
    "website": "https://efunerare.ro",
    "rating": 5.0,
    "review_count": 49,
    "business_hours": {
      "text": "Deschis nonstop"
    },
    "is_non_stop": true,
    "category": "Pompe funebre",
    "latitude": 44.4779594,
    "longitude": 25.8877345,
    "place_id": "0x40b1f9a5c7562c69:0xe97d6dc4a3d0e8",
    "coord_quality": "approximate",
    "email": null,
    "fiscal_code": null,
    "description": null,
    "services": []
  },
  {
    "name": "Memo Eterno Servicii Funerare Sector 1",
    "address": "Calea Grivi»õei 95-97, Bucure»ôti",
    "city": "Bucure»ôti",
    "county": "Bucure»ôti",
    "phone": "0764 690 865",
    "website": "https://casafunerarablaj.ro",
    "rating": 4.9,
    "review_count": 50,
    "business_hours": null,
    "is_non_stop": true,
    "category": "Pompe funebre",
    "latitude": 44.4779594,
    "longitude": 25.8877345,
    "place_id": "0x40b203f5fe68478d:0x419d9256c0015aba",
    "coord_quality": "approximate",
    "email": null,
    "fiscal_code": null,
    "description": null,
    "services": []
  },
  {
    "name": "Pompe Funebre - Don Papu",
    "address": "Bulevardul Hristo Botev 5, Bucure»ôti 030167",
    "city": "Bucure»ôti",
    "county": "Bucure»ôti",
    "phone": "0735 293 293",
    "website": "https://solisfunerare.ro",
    "rating": 5.0,
    "review_count": 50,
    "business_hours": null,
    "is_non_stop": true,
    "category": "Pompe funebre",
    "latitude": 44.4779594,
    "longitude": 25.8877345,
    "place_id": "0x40b1ff85be09fc2b:0xc5e64d5e2cd02e2a",
    "coord_quality": "approximate",
    "email": null,
    "fiscal_code": null,
    "description": null,
    "services": []
  },
  {
    "name": "Servicii Funerare Noublesse Pope»ôti Leordeni",
    "address": "Aleea Pantelimon, Bucure»ôti 022401",
    "city": "Bucure»ôti",
    "county": "Bucure»ôti",
    "phone": "0768 455 138",
    "website": "https://funerarebenefic.ro",
    "rating": 5.0,
    "review_count": 50,
    "business_hours": null,
    "is_non_stop": true,
    "category": "Pompe funebre",
    "latitude": 44.4779594,
    "longitude": 25.8877345,
    "place_id": "0x40b1f928c0cf88c3:0xe8784849bdb6efbd",
    "coord_quality": "approximate",
    "email": null,
    "fiscal_code": null,
    "description": null,
    "services": []
  },
  {
    "name": "Solis Funerare",
    "address": "Bulevardul Laminorului 23, Bucure»ôti 012955",
    "city": "Bucure»ôti",
    "county": "Bucure»ôti",
    "phone": "0761 903 090",
    "website": "https://pompefunebrebucurestinonstop.ro",
    "rating": 5.0,
    "review_count": 50,
    "business_hours": null,
    "is_non_stop": true,
    "category": "Pompe funebre",
    "latitude": 44.4779594,
    "longitude": 25.8877345,
    "place_id": "0x40b203077c0a4bf5:0xaa29db650af063a6",
    "coord_quality": "approximate",
    "email": null,
    "fiscal_code": null,
    "description": null,
    "services": []
  },
  {
    "name": "Servicii Funerare MT Bragadiru",
    "address": "Calea 13 Septembrie 203, Bucure»ôti 061344",
    "city": "Bucure»ôti",
    "county": "Bucure»ôti",
    "phone": "0730 146 274",
    "website": null,
    "rating": 5.0,
    "review_count": 50,
    "business_hours": null,
    "is_non_stop": true,
    "category": "Pompe funebre",
    "latitude": 44.4779594,
    "longitude": 25.8877345,
    "place_id": "0x40b1ff0007761f4f:0xc830badf64d69e04",
    "coord_quality": "approximate",
    "email": null,
    "fiscal_code": null,
    "description": null,
    "services": []
  },
  {
    "name": "Servicii funerare Andrei",
    "address": "Strada Col»õei 46, Bucure»ôti 030247",
    "city": "Bucure»ôti",
    "county": "Bucure»ôti",
    "phone": "0747 117 117",
    "website": "https://facebook.com",
    "rating": 5.0,
    "review_count": 50,
    "business_hours": null,
    "is_non_stop": true,
    "category": "Pompe funebre",
    "latitude": 44.4779594,
    "longitude": 25.8877345,
    "place_id": "0x40b1ff3920ec3ba3:0x762b601570bfab7a",
    "coord_quality": "approximate",
    "email": null,
    "fiscal_code": null,
    "description": null,
    "services": []
  },
  {
    "name": "Memorial",
    "address": "Vintila Mihailescu nr 19, Bucure»ôti 060392",
    "city": "Bucure»ôti",
    "county": "Bucure»ôti",
    "phone": "0769 800 400",
    "website": "https://servicii-funerare-bucuresti-nonstop.ro",
    "rating": 4.2,
    "review_count": 50,
    "business_hours": null,
    "is_non_stop": true,
    "category": "Pompe funebre",
    "latitude": 44.4779594,
    "longitude": 25.8877345,
    "place_id": "0x40b201b7681e1c01:0x4585675feba3bae8",
    "coord_quality": "approximate",
    "email": null,
    "fiscal_code": null,
    "description": null,
    "services": []
  },
  {
    "name": "Memo Eterno Servicii Funerare",
    "address": "Prelungirea Ferentari 131, Bucure»ôti 052472",
    "city": "Bucure»ôti",
    "county": "Bucure»ôti",
    "phone": "0771 383 242",
    "website": "https://funerare-anamaria.ro",
    "rating": 5.0,
    "review_count": 50,
    "business_hours": null,
    "is_non_stop": true,
    "category": "Pompe funebre",
    "latitude": 44.4779594,
    "longitude": 25.8877345,
    "place_id": "0x40b1fff23c318171:0xab9494b776707528",
    "coord_quality": "approximate",
    "email": null,
    "fiscal_code": null,
    "description": null,
    "services": []
  },
  {
    "name": "Servicii Funerare - Ana Maria",
    "address": "Bucure»ôti",
    "city": "Bucure»ôti",
    "county": "Bucure»ôti",
    "phone": "0769 990 000",
    "website": "https://funerarii-bucuresti.ro",
    "rating": 5.0,
    "review_count": 50,
    "business_hours": null,
    "is_non_stop": true,
    "category": "Pompe funebre",
    "latitude": 44.4779594,
    "longitude": 25.8877345,
    "place_id": "0x40b1fff9cd4b62af:0x77a4b4911849e737",
    "coord_quality": "approximate",
    "email": null,
    "fiscal_code": null,
    "description": null,
    "services": []
  },
  {
    "name": "Colosseum",
    "address": "Ro»ôu 077042",
    "city": "Bucure»ôti",
    "county": "Bucure»ôti",
    "phone": "0753 304 050",
    "website": "https://repatrieri-decedati-romania.ro",
    "rating": 3.7,
    "review_count": 50,
    "business_hours": null,
    "is_non_stop": true,
    "category": "Pompe funebre",
    "latitude": 44.4779594,
    "longitude": 25.8877345,
    "place_id": "0x40b200323fdaaaab:0x6610f41a3825b84e",
    "coord_quality": "approximate",
    "email": null,
    "fiscal_code": null,
    "description": null,
    "services": []
  },
  {
    "name": "Memo Eterno Servicii Funerare Sector 2",
    "address": "»òoseaua Berceni 12, Bucure»ôti 077160",
    "city": "Bucure»ôti",
    "county": "Bucure»ôti",
    "phone": "0769 990 000",
    "website": "https://funerarii-bucuresti.ro",
    "rating": 5.0,
    "review_count": 50,
    "business_hours": null,
    "is_non_stop": true,
    "category": "Pompe funebre",
    "latitude": 44.4779594,
    "longitude": 25.8877345,
    "place_id": "0x40b1fe6cf96f37df:0xcad0919d1bf2d9c9",
    "coord_quality": "approximate",
    "email": null,
    "fiscal_code": null,
    "description": null,
    "services": []
  },
  {
    "name": "Servicii Funerare Complete Non Stop",
    "address": "»òoseaua Giurgiului 31, Bucure»ôti 052034",
    "city": "Bucure»ôti",
    "county": "Bucure»ôti",
    "phone": "0768 879 149",
    "website": "https://serviciifuneraremirgal.ro",
    "rating": null,
    "review_count": 50,
    "business_hours": {
      "text": "Deschis nonstop"
    },
    "is_non_stop": true,
    "category": "Pompe funebre",
    "latitude": 44.4779594,
    "longitude": 25.8877345,
    "place_id": "0x40b1ffd10c8cb5ed:0xfac237fdc1db0551",
    "coord_quality": "approximate",
    "email": null,
    "fiscal_code": null,
    "description": null,
    "services": []
  },
  {
    "name": "Condolean»õe",
    "address": "Strada George Folescu 36, Bucure»ôti 021882",
    "city": "Bucure»ôti",
    "county": "Bucure»ôti",
    "phone": "0764 714 714",
    "website": "https://pompe-funebre-bucuresti-nonstop.ro",
    "rating": 4.1,
    "review_count": 50,
    "business_hours": null,
    "is_non_stop": true,
    "category": "Pompe funebre",
    "latitude": 44.4779594,
    "longitude": 25.8877345,
    "place_id": "0x40b1f996aab8cd57:0x3305b1952fb6e52f",
    "coord_quality": "approximate",
    "email": null,
    "fiscal_code": null,
    "description": null,
    "services": []
  },
  {
    "name": "NON STOP SERVICII FUNERARE TITAN",
    "address": "»òoseaua GƒÉrii CƒÉ»õelu 154, Bucure»ôti 327509",
    "city": "Bucure»ôti",
    "county": "Bucure»ôti",
    "phone": "0761 358 284",
    "website": "https://serviciifunerare-sector3.ro",
    "rating": 5.0,
    "review_count": 50,
    "business_hours": null,
    "is_non_stop": true,
    "category": "Pompe funebre",
    "latitude": 44.4284651,
    "longitude": 26.0636093,
    "place_id": "0x40b1fba14225f913:0x90126d7270f237d8",
    "coord_quality": "approximate",
    "email": null,
    "fiscal_code": null,
    "description": null,
    "services": []
  },
  {
    "name": "Rip Funerare",
    "address": "Bulevardul Ferdinand I 130, Bucure»ôti 021397",
    "city": "Bucure»ôti",
    "county": "Bucure»ôti",
    "phone": "021 9891",
    "website": "https://anthony.ro",
    "rating": 5.0,
    "review_count": 50,
    "business_hours": {
      "text": "Deschis nonstop"
    },
    "is_non_stop": true,
    "category": "Pompe funebre",
    "latitude": 44.4284651,
    "longitude": 26.0636093,
    "place_id": "0x40b1f8d3adeb7ddf:0xaa62880b7cd394a2",
    "coord_quality": "approximate",
    "email": null,
    "fiscal_code": null,
    "description": null,
    "services": []
  },
  {
    "name": "Servicii Funerare sector 3 Rebeca NDL",
    "address": "Bulevardul Ghencea 122, Bucure»ôti 061344",
    "city": "Bucure»ôti",
    "county": "Bucure»ôti",
    "phone": "0724 888 853",
    "website": "https://07funerare.ro",
    "rating": 5.0,
    "review_count": null,
    "business_hours": null,
    "is_non_stop": true,
    "category": "Pompe funebre",
    "latitude": 44.4159156,
    "longitude": 25.8892065,
    "place_id": "0x40b20124678f1dc5:0xd3d002b862dbf91a",
    "coord_quality": "approximate",
    "email": null,
    "fiscal_code": null,
    "description": null,
    "services": []
  },
  {
    "name": "Servicii funerare Beelsamen",
    "address": "Unnamed Road, Bucure»ôti",
    "city": "Bucure»ôti",
    "county": "Bucure»ôti",
    "phone": "0769 990 000",
    "website": "https://funerarii-bucuresti.ro",
    "rating": 4.2,
    "review_count": 50,
    "business_hours": null,
    "is_non_stop": true,
    "category": "Pompe funebre",
    "latitude": 44.4159156,
    "longitude": 25.8892065,
    "place_id": "0x40b2016d22392889:0x2c4ec1fff3e88489",
    "coord_quality": "approximate",
    "email": null,
    "fiscal_code": null,
    "description": null,
    "services": []
  },
  {
    "name": "Anthony",
    "address": "»òoseaua Olteni»õei 121, Bucure»ôti 041306",
    "city": "Bucure»ôti",
    "county": "Bucure»ôti",
    "phone": "0769 990 000",
    "website": null,
    "rating": 5.0,
    "review_count": 50,
    "business_hours": null,
    "is_non_stop": true,
    "category": "Pompe funebre",
    "latitude": 44.4159156,
    "longitude": 25.8892065,
    "place_id": "0x40b1fe6efb0beacf:0xd96100b577c40768",
    "coord_quality": "approximate",
    "email": null,
    "fiscal_code": null,
    "description": null,
    "services": []
  },
  {
    "name": "Orasanu",
    "address": "»òoseaua Fundeni nr.154, Bucure»ôti 077086",
    "city": "Bucure»ôti",
    "county": "Bucure»ôti",
    "phone": "0766 207 837",
    "website": "https://casafunerarablaj.ro",
    "rating": 5.0,
    "review_count": 50,
    "business_hours": null,
    "is_non_stop": true,
    "category": "Pompe funebre",
    "latitude": 44.4159156,
    "longitude": 25.8892065,
    "place_id": "0x40b1f91eba512a4d:0x59d3e4563ef1e130",
    "coord_quality": "approximate",
    "email": null,
    "fiscal_code": null,
    "description": null,
    "services": []
  },
  {
    "name": "Servicii Funerare | Repatrieri - 07FUNERARE - AGENTIA Bucuresti Ghencea",
    "address": "Str. Lt. Ilie N. C√¢mpeanu 9, Bucure»ôti 051964",
    "city": "Bucure»ôti",
    "county": "Bucure»ôti",
    "phone": "0760 184 123",
    "website": "https://serviciifunerarerahova.ro",
    "rating": null,
    "review_count": 50,
    "business_hours": null,
    "is_non_stop": true,
    "category": "Pompe funebre",
    "latitude": 44.4159156,
    "longitude": 25.8892065,
    "place_id": "0x40b1ff3d865692bb:0x402c7d413fbcc8e1",
    "coord_quality": "approximate",
    "email": null,
    "fiscal_code": null,
    "description": null,
    "services": []
  },
  {
    "name": "Servicii Funerare Spitalul Militar",
    "address": "Strada Teascului 29, Bucure»ôti 042098",
    "city": "Bucure»ôti",
    "county": "Bucure»ôti",
    "phone": "0722 274 177",
    "website": "https://funerare-complete.ro",
    "rating": 5.0,
    "review_count": 49,
    "business_hours": null,
    "is_non_stop": true,
    "category": "Pompe funebre",
    "latitude": 44.4159156,
    "longitude": 25.8892065,
    "place_id": "0x40b1fd398d05d399:0x1d08ff2bcab17eaa",
    "coord_quality": "approximate",
    "email": null,
    "fiscal_code": null,
    "description": null,
    "services": []
  },
  {
    "name": "Memo Eterno Servicii Funerare Sector 6",
    "address": "Bulevardul Corneliu Coposu 1B, Bucure»ôti 030167",
    "city": "Bucure»ôti",
    "county": "Bucure»ôti",
    "phone": "0764 714 714",
    "website": "https://facebook.com",
    "rating": 5.0,
    "review_count": 50,
    "business_hours": null,
    "is_non_stop": true,
    "category": "Pompe funebre",
    "latitude": 44.4159156,
    "longitude": 25.8892065,
    "place_id": "0x40b1ff3de30e9d63:0xdc721a393150a60",
    "coord_quality": "approximate",
    "email": null,
    "fiscal_code": null,
    "description": null,
    "services": []
  },
  {
    "name": "Servicii Funerare Complete",
    "address": "Bulevardul Tineretului 40, Bucure»ôti",
    "city": "Bucure»ôti",
    "county": "Bucure»ôti",
    "phone": "0747 117 117",
    "website": "https://funerare-funebre-bucuresti.ro",
    "rating": null,
    "review_count": 50,
    "business_hours": null,
    "is_non_stop": true,
    "category": "Pompe funebre",
    "latitude": 44.4159156,
    "longitude": 25.8892065,
    "place_id": "0x40b1fecc747f1e7f:0xa7f1d6af40d4f9b8",
    "coord_quality": "approximate",
    "email": null,
    "fiscal_code": null,
    "description": null,
    "services": []
  },
  {
    "name": "Vogue",
    "address": "Bloc M189 Scara 2, Strada B√¢rcƒÉ 4, Bucure»ôti 052034",
    "city": "Bucure»ôti",
    "county": "Bucure»ôti",
    "phone": "0769 800 400",
    "website": "https://servicii-funerare-bucuresti-nonstop.ro",
    "rating": 4.8,
    "review_count": 45,
    "business_hours": null,
    "is_non_stop": true,
    "category": "Pompe funebre",
    "latitude": 44.4159156,
    "longitude": 25.8892065,
    "place_id": "0x40b1ff0391941585:0x8d51c83342c3c645",
    "coord_quality": "approximate",
    "email": null,
    "fiscal_code": null,
    "description": null,
    "services": []
  },
  {
    "name": "Memo Eterno Servicii Funerare Sector 5",
    "address": "Calea Rahovei 220, Bucure»ôti",
    "city": "Bucure»ôti",
    "county": "Bucure»ôti",
    "phone": "0769 990 000",
    "website": "https://funerarii-bucuresti.ro",
    "rating": 4.5,
    "review_count": 50,
    "business_hours": null,
    "is_non_stop": true,
    "category": "Pompe funebre",
    "latitude": 44.4159156,
    "longitude": 25.8892065,
    "place_id": "0x40b1fff1ee41c891:0x51317e33079e134b",
    "coord_quality": "approximate",
    "email": null,
    "fiscal_code": null,
    "description": null,
    "services": []
  },
  {
    "name": "POMPE FUNEBRE SECTOR 6-NON STOP-TOATE SERVICIILE",
    "address": "Strada Teascului 29, Bucure»ôti 042098",
    "city": "Bucure»ôti",
    "county": "Bucure»ôti",
    "phone": "0722 274 177",
    "website": "https://funerare-complete.ro",
    "rating": null,
    "review_count": 49,
    "business_hours": null,
    "is_non_stop": true,
    "category": "Servicii funerare",
    "latitude": 44.4159156,
    "longitude": 25.8892065,
    "place_id": "0x40b1fd398d05d399:0x1d08ff2bcab17eaa",
    "coord_quality": "approximate",
    "email": null,
    "fiscal_code": null,
    "description": null,
    "services": []
  },
  {
    "name": "Servicii Funerare NonStop",
    "address": "Strada Salva 90, Bucure»ôti 013558",
    "city": "Bucure»ôti",
    "county": "Bucure»ôti",
    "phone": "0762 767 794",
    "website": null,
    "rating": 5.0,
    "review_count": 50,
    "business_hours": null,
    "is_non_stop": true,
    "category": "Servicii de transport",
    "latitude": 44.4159156,
    "longitude": 25.8892065,
    "place_id": "0x40b20586b4300617:0xde57d8ab813a5829",
    "coord_quality": "approximate",
    "email": null,
    "fiscal_code": null,
    "description": null,
    "services": []
  },
  {
    "name": "Servicii Funerare NON STOP",
    "address": "Bulevardul Eroilor 58, Voluntari 077190",
    "city": "Bucure»ôti",
    "county": "Bucure»ôti",
    "phone": "0784 775 031",
    "website": "https://pompefunebrebucuresti.ro",
    "rating": 5.0,
    "review_count": 50,
    "business_hours": null,
    "is_non_stop": true,
    "category": "Pompe funebre",
    "latitude": 44.4159156,
    "longitude": 25.8892065,
    "place_id": "0x40b1f90c8ee641e7:0xc9afe5f99bc624cf",
    "coord_quality": "approximate",
    "email": null,
    "fiscal_code": null,
    "description": null,
    "services": []
  },
  {
    "name": "Servicii Funerare Bojescu",
    "address": "Strada Lizeanu 23, Bucure»ôti 021111",
    "city": "Bucure»ôti",
    "county": "Bucure»ôti",
    "phone": "0722 350 835",
    "website": "https://serviciifunerare.ro",
    "rating": 2.3,
    "review_count": 23,
    "business_hours": null,
    "is_non_stop": true,
    "category": "Pompe funebre",
    "latitude": 44.4159156,
    "longitude": 25.8892065,
    "place_id": "0x40b1fee7ddc783f1:0x83ffef8895650b78",
    "coord_quality": "approximate",
    "email": null,
    "fiscal_code": null,
    "description": null,
    "services": []
  },
  {
    "name": "Repatriere Decedati Condolio din Europa: Italia, Spania, Franta, Germania",
    "address": "Bulevardul Ghencea 20, Bucure»ôti 061344",
    "city": "Bucure»ôti",
    "county": "Bucure»ôti",
    "phone": "0728 003 002",
    "website": "https://repatriericondolio.ro",
    "rating": 5.0,
    "review_count": 50,
    "business_hours": null,
    "is_non_stop": true,
    "category": "Pompe funebre",
    "latitude": 44.4159156,
    "longitude": 25.8892065,
    "place_id": "0x40b20123d365bf99:0x7dd97ef0dc339438",
    "coord_quality": "approximate",
    "email": null,
    "fiscal_code": null,
    "description": null,
    "services": []
  },
  {
    "name": "Servicii Funerare Sector 2",
    "address": "Str. Alexandru cel Bun 47, Bucure»ôti",
    "city": "Bucure»ôti",
    "county": "Bucure»ôti",
    "phone": "0747 117 117",
    "website": "https://casafunerarablaj.ro",
    "rating": 5.0,
    "review_count": 50,
    "business_hours": null,
    "is_non_stop": true,
    "category": "Pompe funebre",
    "latitude": 44.4159156,
    "longitude": 25.8892065,
    "place_id": "0x40b1f8bf0736f459:0x4a38e334547ec48",
    "coord_quality": "approximate",
    "email": null,
    "fiscal_code": null,
    "description": null,
    "services": []
  },
  {
    "name": "LUCI FLOR S.R.L.",
    "address": "Drumul Cooperativei 110A, Bucure»ôti",
    "city": "Bucure»ôti",
    "county": "Bucure»ôti",
    "phone": "0785 252 252",
    "website": null,
    "rating": 4.3,
    "review_count": 43,
    "business_hours": null,
    "is_non_stop": true,
    "category": "Pompe funebre",
    "latitude": 44.4159156,
    "longitude": 25.8892065,
    "place_id": "0x40b20191267ecced:0x92fc96d1faf12e16",
    "coord_quality": "approximate",
    "email": null,
    "fiscal_code": null,
    "description": null,
    "services": []
  },
  {
    "name": "Servicii Funerare | Repatrieri - 07FUNERARE - AGENTIA Ilfov Bragadiru",
    "address": "Strada Unirii 72, Bragadiru 077025",
    "city": "Bucure»ôti",
    "county": "Bucure»ôti",
    "phone": "0733 233 284",
    "website": "https://07funerare.ro",
    "rating": null,
    "review_count": null,
    "business_hours": null,
    "is_non_stop": true,
    "category": "Pompe funebre",
    "latitude": 44.4159156,
    "longitude": 25.8892065,
    "place_id": "0x40adffe8442ca39d:0xfb764d19b7189baa",
    "coord_quality": "approximate",
    "email": null,
    "fiscal_code": null,
    "description": null,
    "services": []
  },
  {
    "name": "Eva Funerare",
    "address": "Calea »òerban VodƒÉ 270, Bucure»ôti 040219",
    "city": "Bucure»ôti",
    "county": "Bucure»ôti",
    "phone": "0765 059 580",
    "website": "https://evafunerare.ro",
    "rating": 5.0,
    "review_count": 50,
    "business_hours": {
      "text": "√énchis ¬∑ Deschide lun. la 08"
    },
    "is_non_stop": true,
    "category": "Pompe funebre",
    "latitude": 44.4159156,
    "longitude": 25.8892065,
    "place_id": "0x40b1ffa925f63439:0x285ec2124f9e5956",
    "coord_quality": "approximate",
    "email": null,
    "fiscal_code": null,
    "description": null,
    "services": []
  },
  {
    "name": "Funerare Gemenii",
    "address": "Calea Giule»ôti 99, Bucure»ôti 060255",
    "city": "Bucure»ôti",
    "county": "Bucure»ôti",
    "phone": "0722 301 166",
    "website": "https://pompefunebrebucuresti.ro",
    "rating": 5.0,
    "review_count": 50,
    "business_hours": null,
    "is_non_stop": true,
    "category": "Pompe funebre",
    "latitude": 44.4159156,
    "longitude": 25.8892065,
    "place_id": "0x40b2018966556437:0x6e2f19d41ea9a784",
    "coord_quality": "approximate",
    "email": null,
    "fiscal_code": null,
    "description": null,
    "services": []
  },
  {
    "name": "Forever Funeral Home",
    "address": "Calea Bucure»ôti 34D, B√¢cu 087151",
    "city": "Bucure»ôti",
    "county": "Bucure»ôti",
    "phone": null,
    "website": null,
    "rating": 5.0,
    "review_count": 50,
    "business_hours": null,
    "is_non_stop": true,
    "category": "Pompe funebre",
    "latitude": 44.4159156,
    "longitude": 25.8892065,
    "place_id": "0x40b2074823b0bc13:0xe9e4bbf3dd27284e",
    "coord_quality": "approximate",
    "email": null,
    "fiscal_code": null,
    "description": null,
    "services": []
  },
  {
    "name": "POMPE FUNEBRE BERCENI",
    "address": "Bulevardul 1 Mai 182, Berceni 077020",
    "city": "Bucure»ôti",
    "county": "Bucure»ôti",
    "phone": "0728 722 766",
    "website": "https://pompefunebreberceni.ro",
    "rating": 5.0,
    "review_count": 50,
    "business_hours": null,
    "is_non_stop": true,
    "category": "Pompe funebre",
    "latitude": 44.4159156,
    "longitude": 25.8892065,
    "place_id": "0x40ae0385a3aff08b:0x4dcd4250bdb44795",
    "coord_quality": "approximate",
    "email": null,
    "fiscal_code": null,
    "description": null,
    "services": []
  },
  {
    "name": "Bucuresti Servicii Funerare",
    "address": "Bulevardul Nicolae BƒÉlcescu 22, Bucure»ôti 030167",
    "city": "Bucure»ôti",
    "county": "Bucure»ôti",
    "phone": "0373 808 318",
    "website": "https://servicii-funerarebucuresti.ro",
    "rating": null,
    "review_count": null,
    "business_hours": null,
    "is_non_stop": true,
    "category": "Pompe funebre",
    "latitude": 44.4159156,
    "longitude": 25.8892065,
    "place_id": "0x40b1ffa740e3af2f:0xf066379318cef311",
    "coord_quality": "approximate",
    "email": null,
    "fiscal_code": null,
    "description": null,
    "services": []
  },
  {
    "name": "Coroane Funerare Bucuresti",
    "address": "Strada Leonida 28, Bucure»ôti 020556",
    "city": "Bucure»ôti",
    "county": "Bucure»ôti",
    "phone": "0374 877 487",
    "website": "https://coroanefunerare.com",
    "rating": 5.0,
    "review_count": 50,
    "business_hours": {
      "text": "√énchis ¬∑ Deschide lun. la 09"
    },
    "is_non_stop": true,
    "category": "FlorƒÉrie",
    "latitude": 44.4268,
    "longitude": 26.1025,
    "place_id": "0x40b1f8b4c3d9b523:0x5471250d022564ec",
    "coord_quality": "approximate",
    "email": null,
    "fiscal_code": null,
    "description": null,
    "services": []
  }
]